     3.02           OBSERVATION DATA    M: Mixed            RINEX VERSION / TYPE
RTKCONV 2.4.3 b33                       20210408 051127 UTC PGM / RUN BY / DATE 
log: C:\Users\denshi\Desktop\Byyize\20201105\base           COMMENT             
format: u-blox                                              COMMENT             
                                                            MARKER NAME         
                                                            MARKER NUMBER       
                                                            MARKER TYPE         
                                                            OBSERVER / AGENCY   
                                                            REC # / TYPE / VERS 
                                                            ANT # / TYPE        
 -3961909.8277  3348999.2275  3698216.8430                  APPROX POSITION XYZ 
        0.0000        0.0000        0.0000                  ANTENNA: DELTA H/E/N
G    4 C1C L1C D1C S1C                                      SYS / # / OBS TYPES 
J    4 C1C L1C D1C S1C                                      SYS / # / OBS TYPES 
  2020    11     5     4    47   36.0070000     GPS         TIME OF FIRST OBS   
  2020    11     5     5    58   58.9880000     GPS         TIME OF LAST OBS    
G                                                           SYS / PHASE SHIFT   
J                                                           SYS / PHASE SHIFT   
  0                                                         GLONASS SLOT / FRQ #
 C1C    0.000 C1P    0.000 C2C    0.000 C2P    0.000        GLONASS COD/PHS/BIS 
                                                            END OF HEADER       
> 2020 11  5  4 47 36.0070000  0 13                     
G28  26358503.050   138514898.810       -1724.998          39.000  
G23  24338392.708   127899133.692        2157.902          44.000  
G15  22435701.103   117900472.837       -1152.399          48.000  
G24  22333188.112   117361763.964         782.588          47.000  
J 1  40831527.330   214571118.130        -223.010          44.000  
G10  27383585.795   143901702.273        2736.994          38.000  
G 5  25326656.292   133092494.377       -3825.908          41.000  
G20  23928324.113   125744190.578        2095.193          45.000  
J 2  38973029.337   204804724.702        -523.845          43.000  
G13  24099094.334   126641676.553       -2840.820          45.000  
G18  23770876.746   124916857.037       -1519.843          45.000  
J 7  39321873.072   206637846.975        -701.347          38.000  
J 3  39839057.062                3      -1051.145          16.000  
> 2020 11  5  4 47 37.0070000  0 13                     
G28  26358831.347   138516624.134       -1726.178          39.000  
G23  24337982.129   127896976.335        2157.032          44.000  
G15  22435920.440   117901625.427       -1152.654          48.000  
G24  22333039.262   117360981.782         781.711          47.000  
J 1  40831569.699   214571341.006        -222.943          44.000  
G10  27383064.955   143898965.247        2736.796          38.000  
G 5  25327384.418   133096320.371       -3826.285          41.000  
G20  23927925.490   125742095.510        2094.674          45.000  
J 2  38973129.057   204805248.799        -524.394          43.000  
G13  24099634.948   126644517.498       -2841.290          45.000  
G18  23771166.016   124918377.279       -1520.871          45.000  
J 7  39322006.514   206638548.350        -701.294          38.000  
J 3  39839254.952                3      -1046.852          16.000  
> 2020 11  5  4 47 38.0070000  0 13                     
G28  26359159.731   138518349.859       -1726.227          39.000  
G23  24337571.592   127894819.078        2157.005          44.000  
G15  22436139.797   117902778.229       -1153.153          48.000  
G24  22332890.406   117360200.079         781.383          47.000  
J 1  40831612.067   214571563.749        -223.218          44.000  
G10  27382544.147   143896228.084        2737.043          38.000  
G 5  25328112.534   133100146.516       -3826.312          41.000  
G20  23927526.872   125740000.650        2094.556          44.000  
J 2  38973228.774   204805772.888        -524.295          43.000  
G13  24100175.554   126647358.473       -2841.350          45.000  
G18  23771455.410   124919898.054       -1521.347          45.000  
J 7  39322139.936   206639249.639        -701.504          38.000  
J 3  39839452.764                3      -1052.702          16.000  
> 2020 11  5  4 47 39.0070000  0 13                     
G28  26359488.275   138520076.103       -1726.141          39.000  
G23  24337161.268   127892662.034        2157.036          44.000  
G15  22436359.203   117903931.280       -1153.242          48.000  
G24  22332741.719   117359418.925         780.827          47.000  
J 1  40831654.496   214571786.390        -222.937          44.000  
G10  27382023.297   143893490.852        2737.260          38.000  
G 5  25328840.682   133103972.903       -3826.641          41.000  
G20  23927128.271   125737906.076        2094.273          44.000  
J 2  38973328.493   204806297.031        -524.264          43.000  
G13  24100716.294   126650199.532       -2841.199          45.000  
G18  23771744.989   124921419.421       -1521.744          45.000  
J 7  39322273.332   206639950.918        -701.489          38.000  
J 3  39839653.545                3      -1053.327          16.000  
> 2020 11  5  4 47 40.0070000  0 13                     
G28  26359816.922   138521802.713       -1727.089          39.000  
G23  24336750.935   127890505.047        2157.033          44.000  
G15  22436578.610   117905084.461       -1153.292          48.000  
G24  22332593.156   117358638.171         780.414          47.000  
J 1  40831696.807   214572008.780        -222.217          44.000  
G10  27381502.445   143890753.421        2737.235          38.000  
G 5  25329568.867   133107799.328       -3826.707          41.000  
G20  23926729.652   125735811.620        2094.369          44.000  
J 2  38973428.164   204806821.094        -524.194          43.000  
G13  24101256.926   126653040.533       -2841.230          45.000  
G18  23772034.619   124922941.244       -1522.062          45.000  
J 7  39322406.711   206640652.012        -701.330          38.000  
J 3  39839852.869                3      -1054.111          16.000  
> 2020 11  5  4 47 41.0070000  0 13                     
G28  26360145.545   138523529.862       -1727.542          39.000  
G23  24336340.637   127888348.334        2156.391          44.000  
G15  22436798.083   117906237.969       -1153.810          48.000  
G24  22332444.782   117357858.011         779.872          47.000  
J 1  40831739.159   214572231.163        -222.559          44.000  
G10  27380981.479   143888015.979        2737.232          38.000  
G 5  25330297.019   133111626.068       -3827.060          41.000  
G20  23926331.161   125733717.520        2093.661          44.000  
J 2  38973527.760   204807345.285        -524.421          43.000  
G13  24101797.566   126655881.674       -2841.413          45.000  
G18  23772324.390   124924463.727       -1522.777          45.000  
J 7  39322540.176   206641353.126        -701.026          38.000  
J 3  39840050.771                3      -1060.091          16.000  
> 2020 11  5  4 47 42.0070000  0 13                     
G28  26360474.476   138525257.624       -1728.029          39.000  
G23  24335930.295   127886191.911        2156.293          43.000  
G15  22437017.633   117907391.843       -1154.028          47.000  
G24  22332296.443   117357078.544         779.075          47.000  
J 1  40831781.459   214572453.558        -222.437          44.000  
G10  27380460.587   143885278.589        2737.303          38.000  
G 5  25331025.300   133115453.129       -3827.097          41.000  
G20  23925932.647   125731623.798        2093.504          45.000  
J 2  38973627.627   204807869.640        -524.531          43.000  
G13  24102338.294   126658723.018       -2841.443          45.000  
G18  23772614.262   124925986.941       -1523.921          45.000  
J 7  39322673.586   206642054.363        -701.576          38.000  
J 3  39840251.394                3      -1056.396          17.000  
> 2020 11  5  4 47 43.0070000  0 13                     
G28  26360803.386   138526985.975       -1728.934          39.000  
G23  24335519.995   127884035.777        2156.296          44.000  
G15  22437237.292   117908546.082       -1154.519          48.000  
G24  22332148.195   117356299.725         778.427          47.000  
J 1  40831823.772   214572675.972        -222.614          44.000  
G10  27379939.729   143882541.228        2737.392          38.000  
G 5  25331753.725   133119280.521       -3827.675          41.000  
G20  23925534.321   125729530.457        2092.992          45.000  
J 2  38973727.468   204808394.162        -524.657          43.000  
G13  24102878.989   126661564.564       -2841.918          45.000  
G18  23772904.227   124927510.826       -1524.477          45.000  
J 7  39322807.061   206642755.644        -701.506          38.000  
J 3  39840452.574                3      -1056.771          17.000  
> 2020 11  5  4 47 44.0070000  0 13                     
G28  26361132.439   138528714.894       -1729.339          39.000  
G23  24335109.765   127881879.953        2155.756          44.000  
G15  22437456.910   117909700.643       -1154.901          48.000  
G24  22332000.125   117355521.530         777.729          47.000  
J 1  40831866.073   214572898.355        -222.552          44.000  
G10  27379418.813   143879803.885        2737.280          38.000  
G 5  25332482.043   133123108.193       -3827.891          41.000  
G20  23925136.073   125727437.460        2092.698          44.000  
J 2  38973827.315   204808918.801        -524.747          43.000  
G13  24103419.741   126664406.244       -2841.967          45.000  
G18  23773194.416   124929035.382       -1525.228          45.000  
J 7  39322940.517   206643456.972        -701.399          38.000  
J 3  39840654.461                3      -1053.791          17.000  
> 2020 11  5  4 47 45.0070000  0 13                     
G28  26361461.596   138530444.340       -1729.865          39.000  
G23  24334699.512   127879724.332        2155.640          44.000  
G15  22437676.769   117910855.496       -1155.063          48.000  
G24  22331852.167   117354743.902         777.486          47.000  
J 1  40831908.371   214573120.692        -222.552          44.000  
G10  27378897.840   143877066.505        2737.409          38.000  
G 5  25333210.511   133126936.121       -3828.321          41.000  
G20  23924737.751   125725344.778        2092.425          44.000  
J 2  38973927.213   204809443.544        -524.796          43.000  
G13  24103960.520   126667248.044       -2841.848          45.000  
G18  23773484.664   124930560.557       -1525.363          45.000  
J 7  39323074.014   206644158.315        -701.471          38.000  
J 3  39840856.482                3      -1051.746          17.000  
> 2020 11  5  4 47 46.0070000  0 13                     
G28  26361790.754   138532174.093       -1729.895          39.000  
G23  24334289.304   127877568.749        2155.531          44.000  
G15  22437896.576   117912010.438       -1155.082          47.000  
G24  22331704.267   117353966.662         777.136          47.000  
J 1  40831950.720   214573342.748        -222.083          44.000  
G10  27378376.859   143874328.855        2738.071          38.000  
G 5  25333938.874   133130764.088       -3827.828          41.000  
G20  23924339.606   125723252.194        2092.451          44.000  
J 2  38974027.020   204809968.180        -524.758          43.000  
G13  24104501.240   126670089.768       -2841.765          45.000  
G18  23773774.906   124932086.163       -1525.800          45.000  
J 7  39323207.421   206644859.441        -700.893          38.000  
J 3  39841055.215                3      -1053.753          15.000  
> 2020 11  5  4 47 47.0070000  0 13                     
G28  26362120.027   138533904.472       -1730.769          39.000  
G23  24333879.149   127875413.462        2155.413          44.000  
G15  22438116.400   117913165.743       -1155.569          48.000  
G24  22331556.532   117353190.063         776.082          47.000  
J 1  40831992.944   214573564.815        -221.979          44.000  
G10  27377855.950   143871591.285        2737.779          38.000  
G 5  25334667.364   133134592.382       -3828.300          41.000  
G20  23923941.558   125721159.993        2091.986          44.000  
J 2  38974126.831   204810492.973        -524.992          43.000  
G13  24105042.045   126672931.688       -2842.307          45.000  
G18  23774065.342   124933612.469       -1526.656          45.000  
J 7  39323340.968   206645560.682        -701.336          38.000  
J 3  39841256.696                3      -1061.633          15.000  
> 2020 11  5  4 47 48.0070000  0 13                     
G28  26362449.367   138535635.467       -1731.284          39.000  
G23  24333469.004   127873258.530        2154.696          43.000  
G15  22438336.242   117914321.444       -1155.861          47.000  
G24  22331408.833   117352414.108         775.664          47.000  
J 1  40832035.170   214573786.951        -222.052          44.000  
G10  27377335.021   143868853.795        2737.127          38.000  
G 5  25335396.004   133138421.052       -3828.759          41.000  
G20  23923543.488   125719068.213        2091.628          44.000  
J 2  38974226.697   204811017.956        -525.045          43.000  
G13  24105582.910   126675773.806       -2842.173          45.000  
G18  23774355.942   124935139.517       -1527.329          45.000  
J 7  39323474.382   206646262.005        -701.473          38.000  
J 3  39841461.576                3      -1073.632          13.000  
> 2020 11  5  4 47 49.0070000  0 13                     
G28  26362778.916   138537367.063       -1732.167          39.000  
G23  24333058.953   127871103.894        2154.185          43.000  
G15  22438556.169   117915477.503       -1156.245          47.000  
G24  22331261.265   117351638.798         774.949          47.000  
J 1  40832077.459   214574009.097        -222.113          44.000  
G10  27376814.040   143866116.312        2737.285          38.000  
G 5  25336124.713   133142250.028       -3829.313          41.000  
G20  23923145.525   125716976.807        2091.319          44.000  
J 2  38974326.654   204811543.110        -525.249          43.000  
G13  24106123.824   126678616.124       -2842.381          45.000  
G18  23774646.623   124936667.270       -1528.143          45.000  
J 7  39323607.843   206646963.400        -701.450          38.000  
J 3  39841662.054                3      -1042.382          11.000  
> 2020 11  5  4 47 50.0070000  0 13                     
G28  26363108.449   138539098.965       -1732.310          39.000  
G23  24332648.938   127868949.259        2154.377          44.000  
G15  22438776.151   117916633.638       -1156.278          48.000  
G24  22331113.796   117350863.873         774.623          47.000  
J 1  40832119.728   214574230.947        -221.777          44.000  
G10  27376293.078   143863378.595        2737.655          38.000  
G 5  25336853.436   133146079.034       -3829.117          41.000  
G20  23922747.603   125714885.495        2091.255          44.000  
J 2  38974426.562   204812068.131        -524.941          43.000  
G13  24106664.642   126681458.354       -2842.322          45.000  
G18  23774937.534   124938195.414       -1528.442          45.000  
J 7  39323741.334   206647664.575        -701.103          38.000  
J 3                                                                
> 2020 11  5  4 47 51.0070000  0 13                     
G28  26363438.046   138540831.261       -1732.927          39.000  
G23  24332238.949   127866794.740        2153.953          44.000  
G15  22438996.268   117917789.951       -1156.907          48.000  
G24  22330966.454   117350089.415         773.746          47.000  
J 1  40832161.925   214574452.637        -222.070          44.000  
G10  27375772.086   143860640.715        2737.686          39.000  
G 5  25337582.119   133149908.200       -3829.777          41.000  
G20  23922349.596   125712794.384        2090.523          44.000  
J 2  38974526.505   204812593.144        -525.552          43.000  
G13  24107205.513   126684300.584       -2842.691          45.000  
G18  23775228.407   124939724.078       -1529.377          45.000  
J 7  39323874.651   206648365.661        -701.579          38.000  
J 3                                                                
> 2020 11  5  4 47 52.0070000  0 13                     
G28  26363767.800   138542564.366       -1733.368          39.000  
G23  24331829.120   127864640.740        2153.935          44.000  
G15  22439216.320   117918946.809       -1157.068          48.000  
G24  22330819.245   117349315.788         773.179          47.000  
J 1  40832204.119   214574674.528        -221.869          44.000  
G10  27375251.234   143857903.083        2737.575          39.000  
G 5  25338310.882   133153737.861       -3829.822          41.000  
G20  23921951.818   125710703.831        2090.170          44.000  
J 2  38974626.437   204813118.512        -525.513          43.000  
G13  24107746.355   126687143.185       -2842.938          45.000  
G18  23775519.476   124941253.645       -1530.051          45.000  
J 7  39324008.148   206649067.021        -701.746          38.000  
J 3                                                                
> 2020 11  5  4 47 53.0070000  0 13                     
G28  26364097.689   138544298.160       -1733.955          39.000  
G23  24331419.281   127862487.096        2154.118          44.000  
G15  22439436.652   117920104.115       -1157.386          47.000  
G24  22330672.113   117348542.893         772.731          47.000  
J 1  40832246.365   214574896.513        -221.741          44.000  
G10  27374730.217   143855165.559        2737.831          39.000  
G 5  25339039.730   133157567.937       -3830.097          41.000  
G20  23921554.051   125708613.737        2090.077          44.000  
J 2  38974726.454   204813644.099        -525.430          43.000  
G13  24108287.326   126689986.065       -2842.903          45.000  
G18  23775810.674   124942783.980       -1530.356          45.000  
J 7  39324141.586   206649768.514        -701.279          38.000  
J 3                                                                
> 2020 11  5  4 47 54.0070000  0 13                     
G28  26364427.733   138546032.399       -1734.591          39.000  
G23  24331009.451   127860333.658        2153.274          44.000  
G15  22439656.821   117921261.653       -1157.619          47.000  
G24  22330525.219   117347770.503         772.277          47.000  
J 1  40832288.586   214575118.381        -221.838          44.000  
G10  27374209.213   143852427.950        2737.714          39.000  
G 5  25339768.668   133161398.212       -3830.459          41.000  
G20  23921156.265   125706523.900        2089.714          44.000  
J 2  38974826.396   204814169.737        -525.749          43.000  
G13  24108828.445   126692829.001       -2843.015          45.000  
G18  23776101.972   124944314.887       -1531.138          45.000  
J 7  39324274.943   206650469.970        -701.463          38.000  
J 3                                                                
> 2020 11  5  4 47 55.0070000  0 13                     
G28  26364757.914   138547767.169       -1735.020          39.000  
G23  24330599.707   127858180.434        2153.125          44.000  
G15  22439877.169   117922419.486       -1157.956          47.000  
G24  22330378.400   117346998.701         771.623          47.000  
J 1  40832330.858   214575340.201        -221.893          44.000  
G10  27373688.327   143849690.335        2737.247          39.000  
G 5  25340497.603   133165228.727       -3830.778          41.000  
G20  23920758.704   125704434.374        2089.439          44.000  
J 2  38974926.456   204814695.463        -525.750          43.000  
G13  24109369.427   126695672.051       -2843.033          45.000  
G18  23776393.326   124945846.421       -1531.708          45.000  
J 7  39324408.433   206651171.420        -701.233          38.000  
J 3                                                                
> 2020 11  5  4 47 56.0070000  0 13                     
G28  26365088.157   138549502.486       -1735.487          39.000  
G23  24330190.023   127856027.477        2152.876          44.000  
G15  22440097.519   117923577.626       -1158.124          48.000  
G24  22330231.695   117346227.517         770.901          47.000  
J 1  40832373.069   214575561.969        -221.606          44.000  
G10  27373167.254   143846952.656        2738.109          39.000  
G 5  25341226.594   133169059.510       -3830.830          41.000  
G20  23920361.155   125702345.175        2089.341          45.000  
J 2  38975026.559   204815221.303        -525.699          43.000  
G13  24109910.437   126698515.245       -2842.988          45.000  
G18  23776684.816   124947378.619       -1532.273          45.000  
J 7  39324542.010   206651872.903        -701.031          38.000  
J 3                                                                
> 2020 11  5  4 47 57.0070000  0 13                     
G28  26365418.467   138551238.171       -1735.938          39.000  
G23  24329780.365   127853874.597        2152.747          44.000  
G15  22440317.984   117924735.921       -1158.429          48.000  
G24  22330085.028   117345456.723         770.544          47.000  
J 1  40832415.211   214575783.533        -221.692          44.000  
G10  27372646.263   143844214.831        2737.989          39.000  
G 5  25341955.525   133172890.407       -3830.789          41.000  
G20  23919963.694   125700256.157        2088.735          45.000  
J 2  38975126.604   204815747.086        -525.862          43.000  
G13  24110451.360   126701358.388       -2843.069          45.000  
G18  23776976.574   124948911.286       -1533.013          46.000  
J 7  39324675.476   206652574.246        -701.440          38.000  
J 3                                                                
> 2020 11  5  4 47 58.0070000  0 13                     
G28  26365748.828   138552974.225       -1736.345          39.000  
G23  24329370.672   127851721.784        2152.541          44.000  
G15  22440538.390   117925894.338       -1158.667          47.000  
G24  22329938.356   117344686.361         769.927          47.000  
J 1  40832457.292   214576004.863        -221.393          44.000  
G10  27372125.184   143841476.793        2738.025          38.000  
G 5  25342684.626   133176721.404       -3831.107          41.000  
G20  23919566.122   125698167.257        2088.718          45.000  
J 2  38975226.677   204816272.797        -525.887          43.000  
G13  24110992.474   126704201.516       -2843.275          45.000  
G18  23777268.352   124950444.420       -1533.521          45.000  
J 7  39324808.803   206653275.418        -701.271          38.000  
J 3                                                                
> 2020 11  5  4 47 59.0070000  0 13                     
G28  26366079.262   138554710.632       -1736.895          39.000  
G23  24328961.001   127849569.008        2152.457          44.000  
G15  22440758.784   117927052.853       -1158.667          48.000  
G24  22329791.723   117343916.374         769.706          47.000  
J 1  40832499.371   214576225.950        -220.996          44.000  
G10  27371604.008   143838738.527        2738.634          38.000  
G 5  25343413.604   133180552.469       -3831.183          41.000  
G20  23919168.605   125696078.486        2088.666          45.000  
J 2  38975326.709   204816798.401        -525.680          43.000  
G13  24111533.438   126707044.557       -2842.957          45.000  
G18  23777560.123   124951977.975       -1533.713          45.000  
J 7  39324942.130   206653976.414        -701.037          38.000  
J 3                                                                
> 2020 11  5  4 48  0.0070000  0 13                     
G28  26366409.700   138556447.385       -1737.153          39.000  
G23  24328551.368   127847416.284        2152.709          44.000  
G15  22440979.307   117928211.492       -1158.717          48.000  
G24  22329645.401   117343146.801         769.327          47.000  
J 1  40832541.418   214576446.804        -220.630          44.000  
G10  27371082.948   143836000.069        2738.855          38.000  
G 5  25344142.603   133184383.600       -3831.053          41.000  
G20  23918771.107   125693989.868        2088.313          45.000  
J 2  38975426.818   204817323.932        -525.599          43.000  
G13  24112074.533   126709887.542       -2842.915          45.000  
G18  23777852.048   124953512.001       -1534.194          45.000  
J 7  39325075.572   206654677.252        -700.845          38.000  
J 3                                                                
> 2020 11  5  4 48  1.0070000  0 13                     
G28  26366740.285   138558184.571       -1737.709          39.000  
G23  24328141.819   127845263.722        2152.380          44.000  
G15  22441199.810   117929370.338       -1159.070          48.000  
G24  22329499.102   117342377.726         768.576          47.000  
J 1  40832583.427   214576667.525        -220.770          44.000  
G10  27370561.773   143833261.537        2737.987          38.000  
G 5  25344871.700   133188214.903       -3831.581          41.000  
G20  23918373.675   125691901.457        2088.106          45.000  
J 2  38975526.831   204817849.459        -525.659          43.000  
G13  24112615.563   126712730.551       -2843.099          45.000  
G18  23778144.037   124955046.557       -1534.828          45.000  
J 7  39325208.877   206655377.991        -700.942          38.000  
J 3                                                                
> 2020 11  5  4 48  2.0070000  0 13                     
G28  26367070.952   138559922.255       -1737.840          39.000  
G23  24327732.171   127843111.370        2152.235          44.000  
G15  22441420.371   117930529.442       -1159.160          48.000  
G24  22329352.869   117341609.229         768.256          47.000  
J 1  40832625.391   214576888.169        -220.709          44.000  
G10  27370040.696   143830522.886        2738.707          38.000  
G 5  25345600.890   133192046.425       -3831.498          41.000  
G20  23917976.345   125689813.332        2088.043          45.000  
J 2  38975626.866   204818375.068        -525.559          43.000  
G13  24113156.546   126715573.684       -2843.216          45.000  
G18  23778436.121   124956581.733       -1535.273          45.000  
J 7  39325342.271   206656078.717        -700.485          38.000  
J 3                                                                
> 2020 11  5  4 48  3.0070000  0 13                     
G28  26367401.685   138561660.404       -1738.265          39.000  
G23  24327322.523   127840959.189        2151.953          44.000  
G15  22441640.960   117931688.793       -1159.493          48.000  
G24  22329206.837   117340841.272         767.749          47.000  
J 1  40832667.326   214577108.674        -220.349          44.000  
G10  27369519.581   143827784.163        2738.755          38.000  
G 5  25346330.070   133195878.179       -3831.812          41.000  
G20  23917579.067   125687725.473        2087.837          45.000  
J 2  38975726.942   204818900.722        -525.943          43.000  
G13  24113697.611   126718416.841       -2842.955          45.000  
G18  23778728.373   124958117.479       -1536.215          45.000  
J 7  39325475.544   206656779.408        -700.636          38.000  
J 3                                                                
> 2020 11  5  4 48  4.0070000  0 13                     
G28  26367732.539   138563399.113       -1739.278          39.000  
G23  24326913.035   127838807.227        2151.896          44.000  
G15  22441861.725   117932848.430       -1159.766          48.000  
G24  22329060.746   117340073.878         767.188          47.000  
J 1  40832709.126   214577329.140        -220.416          44.000  
G10  27368998.434   143825045.400        2738.979          38.000  
G 5  25347059.275   133199710.170       -3832.094          41.000  
G20  23917181.781   125685637.924        2087.312          45.000  
J 2  38975826.892   204819426.435        -525.799          43.000  
G13  24114238.665   126721260.150       -2843.211          45.000  
G18  23779020.629   124959653.836       -1536.668          45.000  
J 7  39325608.947   206657480.081        -700.818          38.000  
J 3                                                                
> 2020 11  5  4 48  5.0070000  0 13                     
G28  26368063.485   138565138.092       -1739.150          39.000  
G23  24326503.572   127836655.278        2152.180          44.000  
G15  22442082.363   117934008.126       -1159.794          48.000  
G24  22328914.742   117339306.821         766.941          47.000  
J 1  40832751.089   214577549.309        -219.965          44.000  
G10  27368477.135   143822306.393        2739.380          38.000  
G 5  25347788.653   133203542.178       -3831.961          41.000  
G20  23916784.434   125683550.448        2087.487          45.000  
J 2  38975926.936   204819952.020        -525.300          43.000  
G13  24114779.735   126724103.347       -2843.346          45.000  
G18  23779313.162   124961190.598       -1537.024          45.000  
J 7  39325742.188   206658180.542        -700.304          38.000  
J 3                                                                
> 2020 11  5  4 48  6.0070000  0 13                     
G28  26368394.552   138566877.588       -1739.455          39.000  
G23  24326094.180   127834503.591        2151.549          44.000  
G15  22442303.062   117935168.110       -1160.067          48.000  
G24  22328768.842   117338540.348         766.278          47.000  
J 1  40832793.033   214577769.434        -220.074          44.000  
G10  27367955.889   143819567.328        2739.501          38.000  
G 5  25348517.944   133207374.432       -3832.094          41.000  
G20  23916387.321   125681463.290        2087.223          45.000  
J 2  38976027.010   204820477.705        -525.400          43.000  
G13  24115320.803   126726946.640       -2843.276          45.000  
G18  23779605.793   124962728.001       -1537.723          45.000  
J 7  39325875.482   206658880.990        -700.146          38.000  
J 3                                                                
> 2020 11  5  4 48  7.0070000  0 13                     
G28  26368725.673   138568617.679       -1740.597          39.000  
G23  24325684.752   127832352.126        2151.572          44.000  
G15  22442523.905   117936328.420       -1160.419          48.000  
G24  22328623.093   117337774.476         765.760          47.000  
J 1  40832834.930   214577989.516        -220.056          44.000  
G10  27367434.723   143816828.323        2738.771          38.000  
G 5  25349247.371   133211206.977       -3832.762          41.000  
G20  23915990.279   125679376.473        2086.702          45.000  
J 2  38976127.160   204821003.518        -525.801          43.000  
G13  24115861.994   126729790.087       -2843.348          45.000  
G18  23779898.414   124964266.040       -1538.282          45.000  
J 7  39326008.734   206659581.489        -700.332          38.000  
J 3                                                                
> 2020 11  5  4 48  8.0070000  0 13                     
G28  26369056.853   138570358.236       -1741.019          39.000  
G23  24325275.395   127830200.886        2151.087          44.000  
G15  22442744.804   117937488.956       -1160.791          48.000  
G24  22328477.395   117337009.135         764.996          47.000  
J 1  40832876.794   214578209.495        -220.068          44.000  
G10  27366913.421   143814089.187        2738.858          38.000  
G 5  25349976.737   133215039.712       -3832.970          41.000  
G20  23915593.244   125677289.924        2086.329          45.000  
J 2  38976227.146   204821529.377        -526.019          43.000  
G13  24116403.077   126732633.615       -2843.704          45.000  
G18  23780191.192   124965804.676       -1539.080          45.000  
J 7  39326142.037   206660281.940        -700.442          38.000  
J 3                                                                
> 2020 11  5  4 48  9.0070000  0 13                     
G28  26369388.174   138572099.329       -1741.366          39.000  
G23  24324866.162   127828049.884        2150.719          44.000  
G15  22442965.665   117938649.826       -1161.147          48.000  
G24  22328331.812   117336244.381         764.497          47.000  
J 1  40832918.656   214578429.457        -220.135          44.000  
G10  27366392.070   143811350.046        2739.119          38.000  
G 5  25350706.186   133218872.722       -3833.127          42.000  
G20  23915196.272   125675203.711        2086.023          45.000  
J 2  38976327.243   204822055.347        -525.989          43.000  
G13  24116944.235   126735477.284       -2843.881          45.000  
G18  23780484.116   124967343.954       -1539.646          45.000  
J 7  39326275.301   206660982.442        -700.619          38.000  
J 3                                                                
> 2020 11  5  4 48 10.0070000  0 13                     
G28  26369719.613   138573840.895       -1741.827          39.000  
G23  24324456.872   127825899.056        2150.928          44.000  
G15  22443186.694   117939810.918       -1161.164          48.000  
G24  22328186.417   117335480.155         764.013          47.000  
J 1  40832960.549   214578649.269        -219.690          44.000  
G10  27365870.842   143808610.820        2739.273          38.000  
G 5  25351435.615   133222705.902       -3833.160          42.000  
G20  23914799.346   125673117.754        2085.714          45.000  
J 2  38976427.344   204822581.355        -526.064          43.000  
G13  24117485.296   126738321.003       -2843.791          45.000  
G18  23780777.079   124968883.816       -1540.250          45.000  
J 7  39326408.624   206661682.865        -700.263          38.000  
J 3                                                                
> 2020 11  5  4 48 11.0070000  0 13                     
G28  26370051.132   138575583.030       -1742.506          38.000  
G23  24324047.598   127823748.516        2150.483          44.000  
G15  22443407.678   117940972.366       -1161.780          48.000  
G24  22328041.127   117334716.563         763.228          47.000  
J 1  40833002.443   214578869.101        -219.971          44.000  
G10  27365349.541   143805871.602        2739.510          38.000  
G 5  25352165.154   133226539.395       -3833.770          42.000  
G20  23914402.437   125671032.148        2085.314          45.000  
J 2  38976527.479   204823107.503        -526.391          43.000  
G13  24118026.422   126741164.913       -2844.238          45.000  
G18  23781070.209   124970424.332       -1540.983          45.000  
J 7  39326541.958   206662383.358        -700.669          38.000  
J 3                                                                
> 2020 11  5  4 48 12.0070000  0 13                     
G28  26370382.686   138577325.828       -1742.992          39.000  
G23  24323638.413   127821598.352        2149.908          44.000  
G15  22443628.686   117942134.225       -1162.142          48.000  
G24  22327895.868   117333953.690         762.504          47.000  
J 1  40833044.320   214579088.986        -219.952          44.000  
G10  27364828.299   143803132.510        2738.881          38.000  
G 5  25352894.701   133230373.266       -3834.045          42.000  
G20  23914005.589   125668946.984        2084.840          45.000  
J 2  38976627.518   204823633.873        -526.482          43.000  
G13  24118567.526   126744009.070       -2844.447          45.000  
G18  23781363.527   124971965.626       -1541.747          45.000  
J 7  39326675.329   206663083.980        -700.559          38.000  
J 3                                                                
> 2020 11  5  4 48 13.0070000  0 13                     
G28  26370714.416   138579069.260       -1743.469          39.000  
G23  24323229.433   127819448.525        2149.819          44.000  
G15  22443850.008   117943296.495       -1162.313          48.000  
G24  22327750.818   117333191.509         761.940          47.000  
J 1  40833086.149   214579308.943        -220.050          44.000  
G10  27364307.036   143800393.488        2738.947          38.000  
G 5  25353624.236   133234207.505       -3834.128          42.000  
G20  23913609.010   125666862.242        2084.812          45.000  
J 2  38976727.670   204824160.436        -526.494          43.000  
G13  24119108.746   126746853.461       -2844.443          45.000  
G18  23781656.998   124973507.649       -1542.194          45.000  
J 7  39326808.722   206663784.717        -700.348          38.000  
J 3                                                                
> 2020 11  5  4 48 14.0070000  0 13                     
G28  26371046.288   138580813.243       -1744.045          39.000  
G23  24322820.429   127817298.947        2149.418          44.000  
G15  22444071.278   117944459.071       -1162.846          48.000  
G24  22327605.912   117332429.908         761.220          47.000  
J 1  40833128.005   214579528.840        -220.026          44.000  
G10  27363785.849   143797654.446        2738.833          38.000  
G 5  25354353.895   133238042.019       -3834.746          42.000  
G20  23913212.495   125664777.832        2084.286          45.000  
J 2  38976827.939   204824687.128        -526.888          43.000  
G13  24119650.098   126749697.979       -2844.594          45.000  
G18  23781950.565   124975050.322       -1543.125          45.000  
J 7  39326942.059   206664485.499        -700.929          38.000  
J 3                                                                
> 2020 11  5  4 48 15.0070000  0 13                     
G28  26371378.193   138582557.647       -1744.546          39.000  
G23  24322411.497   127815149.484        2149.646          44.000  
G15  22444292.452   117945621.822       -1162.901          48.000  
G24  22327461.045   117331668.781         760.991          47.000  
J 1  40833169.785   214579748.576        -219.666          44.000  
G10  27363264.723   143794915.263        2739.506          38.000  
G 5  25355083.605   133241876.678       -3834.917          42.000  
G20  23912815.824   125662693.627        2084.155          45.000  
J 2  38976928.050   204825213.772        -526.617          43.000  
G13  24120191.453   126752542.502       -2844.639          45.000  
G18  23782244.124   124976593.498       -1543.496          45.000  
J 7  39327075.479   206665186.129        -700.363          38.000  
J 3                                                                
> 2020 11  5  4 48 16.0070000  0 13                     
G28  26371710.249   138584302.390       -1744.748          39.000  
G23  24322002.595   127813000.117        2149.243          44.000  
G15  22444513.771   117946784.701       -1162.941          48.000  
G24  22327316.240   117330908.077         760.472          47.000  
J 1  40833211.443   214579968.091        -219.299          44.000  
G10  27362743.415   143792175.879        2739.778          38.000  
G 5  25355813.338   133245711.390       -3834.630          42.000  
G20  23912419.248   125660609.567        2083.990          45.000  
J 2  38977028.265   204825740.373        -526.613          43.000  
G13  24120732.778   126755386.988       -2844.517          45.000  
G18  23782537.903   124978137.136       -1543.745          45.000  
J 7  39327208.794   206665886.645        -700.665          38.000  
J 3                                                                
> 2020 11  5  4 48 17.0070000  0 13                     
G28  26372042.327   138586047.566       -1745.754          39.000  
G23  24321593.577   127810850.820        2149.460          44.000  
G15  22444735.202   117947947.742       -1163.149          48.000  
G24  22327171.551   117330147.805         759.951          47.000  
J 1  40833253.135   214580187.415        -219.373          44.000  
G10  27362222.114   143789436.370        2739.395          38.000  
G 5  25356542.984   133249546.252       -3835.069          41.000  
G20  23912022.725   125658525.682        2083.883          45.000  
J 2  38977128.468   204826266.924        -526.662          43.000  
G13  24121274.180   126758231.451       -2844.533          45.000  
G18  23782831.695   124979681.294       -1544.478          45.000  
J 7  39327342.000   206666587.021        -700.353          38.000  
J 3                                                                
> 2020 11  5  4 48 18.0070000  0 13                     
G28  26372374.503   138587793.346       -1746.059          39.000  
G23  24321184.539   127808701.902        2148.535          44.000  
G15  22444956.699   117949111.187       -1163.757          47.000  
G24  22327027.032   117329388.216         759.239          47.000  
J 1  40833294.835   214580406.800        -219.513          44.000  
G10  27361700.869   143786696.916        2739.421          38.000  
G 5  25357272.847   133253381.461       -3835.438          41.000  
G20  23911626.195   125656442.242        2083.062          45.000  
J 2  38977228.711   204826793.692        -527.124          43.000  
G13  24121815.460   126761076.142       -2844.702          45.000  
G18  23783125.703   124981226.173       -1545.444          45.000  
J 7  39327475.292   206667287.500        -700.595          38.000  
J 3                                                                
> 2020 11  5  4 48 19.0070000  0 13                     
G28  26372706.865   138589539.702       -1746.784          39.000  
G23  24320775.775   127806553.236        2148.373          44.000  
G15  22445178.115   117950274.961       -1164.041          47.000  
G24  22326882.625   117328629.259         758.655          47.000  
J 1  40833336.607   214580626.158        -219.543          44.000  
G10  27361179.588   143783957.477        2738.777          38.000  
G 5  25358002.823   133257216.962       -3835.663          41.000  
G20  23911229.821   125654359.134        2082.718          45.000  
J 2  38977329.005   204827320.567        -527.162          43.000  
G13  24122356.745   126763920.983       -2845.072          45.000  
G18  23783419.853   124982771.718       -1546.009          45.000  
J 7  39327608.648   206667988.032        -700.558          38.000  
J 3                                                                
> 2020 11  5  4 48 20.0070000  0 13                     
G28  26373039.261   138591286.511       -1747.444          39.000  
G23  24320366.893   127804404.736        2147.976          44.000  
G15  22445399.646   117951438.944       -1164.428          47.000  
G24  22326738.432   117327870.810         757.954          47.000  
J 1  40833378.280   214580845.392        -219.739          44.000  
G10  27360658.246   143781217.913        2739.419          38.000  
G 5  25358732.609   133261052.638       -3836.053          41.000  
G20  23910833.538   125652276.273        2082.373          45.000  
J 2  38977429.306   204827847.470        -527.267          43.000  
G13  24122898.059   126766765.874       -2845.245          45.000  
G18  23783714.090   124984317.817       -1546.602          45.000  
J 7  39327742.011   206668688.498        -701.102          38.000  
J 3                                                                
> 2020 11  5  4 48 21.0070000  0 13                     
G28  26373371.776   138593033.932       -1747.700          39.000  
G23  24319958.079   127802256.567        2147.987          44.000  
G15  22445621.159   117952603.323       -1164.656          47.000  
G24  22326594.261   117327113.035         757.321          47.000  
J 1  40833419.862   214581064.639        -219.177          44.000  
G10  27360136.869   143778478.438        2739.216          38.000  
G 5  25359462.560   133264888.662       -3836.030          41.000  
G20  23910437.179   125650193.825        2082.141          45.000  
J 2  38977529.593   204828374.563        -527.434          43.000  
G13  24123439.485   126769610.967       -2845.422          45.000  
G18  23784008.396   124985864.640       -1547.199          45.000  
J 7  39327875.313   206669389.044        -700.591          38.000  
J 3                                                                
> 2020 11  5  4 48 22.0070000  0 13                     
G28  26373704.456   138594781.816       -1748.005          39.000  
G23  24319549.350   127800108.563        2148.014          44.000  
G15  22445842.756   117953767.910       -1164.705          47.000  
G24  22326450.159   117326355.757         756.997          47.000  
J 1  40833461.586   214581283.782        -219.037          44.000  
G10  27359615.471   143775738.841        2739.822          38.000  
G 5  25360192.584   133268724.875       -3836.228          41.000  
G20  23910040.883   125648111.614        2081.969          45.000  
J 2  38977629.856   204828901.673        -527.265          43.000  
G13  24123980.888   126772456.104       -2845.176          45.000  
G18  23784302.981   124987412.020       -1547.599          45.000  
J 7  39328008.550   206670089.546        -700.420          38.000  
J 3                                                                
> 2020 11  5  4 48 23.0070000  0 13                     
G28  26374037.158   138596530.377       -1748.671          39.000  
G23  24319140.652   127797960.946        2147.340          44.000  
G15  22446064.514   117954932.950       -1165.315          47.000  
G24  22326306.180   117325599.222         756.282          46.000  
J 1  40833503.317   214581503.006        -219.312          44.000  
G10  27359094.239   143772999.385        2739.219          37.000  
G 5  25360922.754   133272561.467       -3836.930          41.000  
G20  23909644.843   125646029.862        2081.472          44.000  
J 2  38977730.215   204829429.025        -527.520          42.000  
G13  24124522.432   126775301.502       -2845.429          45.000  
G18  23784597.550   124988960.170       -1548.409          45.000  
J 7  39328141.884   206670790.190        -700.662          38.000  
J 3                                                                
> 2020 11  5  4 48 24.0070000  0 13                     
G28  26374369.997   138598279.550       -1749.328          39.000  
G23  24318731.995   127795813.636        2147.135          44.000  
G15  22446286.228   117956098.356       -1165.628          47.000  
G24  22326162.338   117324843.359         755.476          47.000  
J 1  40833545.063   214581722.250        -219.196          44.000  
G10  27358572.969   143770259.953        2739.078          38.000  
G 5  25361652.952   133276398.399       -3837.024          41.000  
G20  23909248.769   125643948.506        2081.013          45.000  
J 2  38977830.661   204829956.544        -527.665          43.000  
G13  24125063.999   126778147.121       -2845.777          45.000  
G18  23784892.316   124990509.048       -1549.306          45.000  
J 7  39328275.222   206671490.931        -700.887          38.000  
J 3                                                                
> 2020 11  5  4 48 25.0070000  0 13                     
G28  26374703.025   138600029.480       -1750.310          39.000  
G23  24318323.482   127793666.798        2146.689          44.000  
G15  22446508.059   117957264.274       -1166.019          48.000  
G24  22326018.727   117324088.312         754.632          47.000  
J 1  40833586.905   214581941.666        -219.263          44.000  
G10  27358051.560   143767520.731        2739.295          37.000  
G 5  25362383.202   133280235.806       -3837.459          42.000  
G20  23908852.821   125641867.689        2080.562          45.000  
J 2  38977931.119   204830484.404        -528.171          43.000  
G13  24125605.356   126780993.067       -2846.077          45.000  
G18  23785187.281   124992058.769       -1550.014          45.000  
J 7  39328408.709   206672191.901        -701.125          38.000  
J 3                                                                
> 2020 11  5  4 48 26.0070000  0 14                     
G28  26375036.170   138601780.054       -1750.898          39.000  
G23  24317915.046   127791520.331        2146.406          44.000  
G15  22446730.043   117958430.630       -1166.596          48.000  
G24  22325875.174   117323334.006         753.931          47.000  
J 1  40833628.700   214582161.169        -219.543          44.000  
G10  27357530.314   143764781.637        2738.730          37.000  
G 5  25363113.557   133284073.609       -3838.018          42.000  
G20  23908456.936   125639787.328        2080.251          45.000  
J 2  38978031.583   204831012.477        -528.199          43.000  
G13  24126146.939   126783839.269       -2846.434          45.000  
G18  23785482.330   124993609.243       -1550.758          45.000  
J 7  39328542.087   206672893.003        -701.162          38.000  
J 3                                                                
G12                                                                
> 2020 11  5  4 48 27.0070000  0 14                     
G28  26375369.394   138603531.212       -1751.278          39.000  
G23  24317506.577   127789374.151        2146.142          44.000  
G15  22446952.019   117959597.324       -1166.806          48.000  
G24  22325731.734   117322580.310         753.488          47.000  
J 1  40833670.462   214582380.655        -219.501          44.000  
G10  27357009.101   143762042.523        2739.247          37.000  
G 5  25363843.995   133287911.699       -3838.368          42.000  
G20  23908061.169   125637707.325        2079.933          45.000  
J 2  38978132.114   204831540.687        -528.221          43.000  
G13  24126688.628   126786685.632       -2846.172          45.000  
G18  23785777.466   124995160.405       -1551.348          45.000  
J 7  39328675.533   206673594.198        -701.415          38.000  
J 3                                                                
G12                                                                
> 2020 11  5  4 48 28.0070000  0 14                     
G28  26375702.605   138605282.824       -1751.712          39.000  
G23  24317098.144   127787228.143        2145.918          44.000  
G15  22447174.057   117960764.245       -1167.006          48.000  
G24  22325588.470   117321827.138         752.990          47.000  
J 1  40833712.180   214582600.017        -219.434          44.000  
G10  27356487.793   143759303.333        2739.293          37.000  
G 5  25364574.395   133291749.962       -3838.246          42.000  
G20  23907665.347   125635627.573        2079.707          45.000  
J 2  38978232.674   204832068.944        -528.239          43.000  
G13  24127230.298   126789532.062       -2846.373          45.000  
G18  23786072.729   124996712.124       -1551.971          46.000  
J 7  39328808.933   206674295.284        -700.646          38.000  
J 3                                                                
G12                                                                
> 2020 11  5  4 48 29.0070000  0 14                     
G28  26376035.993   138607034.849       -1752.300          39.000  
G23  24316689.826   127785082.213        2146.167          44.000  
G15  22447396.168   117961931.305       -1166.919          48.000  
G24  22325445.126   117321074.360         752.808          47.000  
J 1  40833753.863   214582819.177        -218.872          44.000  
G10  27355966.524   143756563.962        2739.436          37.000  
G 5  25365304.831   133295588.365       -3838.501          42.000  
G20  23907269.522   125633547.978        2079.895          45.000  
J 2  38978333.171   204832597.128        -527.983          43.000  
G13  24127771.941   126792378.457       -2846.209          45.000  
G18  23786368.137   124998264.326       -1552.262          45.000  
J 7  39328942.243   206674996.241        -700.571          38.000  
J 3                                                                
G12                                                                
> 2020 11  5  4 48 30.0070000  0 14                     
G28  26376369.403   138608787.019       -1751.964          39.000  
G23  24316281.414   127782936.192        2146.402          44.000  
G15  22447618.317   117963098.341       -1167.039          48.000  
G24  22325301.988   117320321.826         752.514          47.000  
J 1  40833795.500   214583037.945        -218.500          44.000  
G10  27355445.104   143753824.226        2739.940          37.000  
G 5  25366035.156   133299426.651       -3838.059          42.000  
G20  23906873.752   125631468.390        2079.692          45.000  
J 2  38978433.585   204833125.079        -527.687          43.000  
G13  24128313.555   126795224.647       -2845.999          45.000  
G18  23786663.552   124999816.818       -1552.459          45.000  
J 7  39329075.519   206675696.892        -700.108          38.000  
J 3                                                                
G12                                                                
> 2020 11  5  4 48 31.0070000  0 14                     
G28  26376702.908   138610539.306       -1752.552          39.000  
G23  24315872.978   127780789.973        2146.058          44.000  
G15  22447840.421   117964265.215       -1167.032          47.000  
G24  22325158.790   117319569.408         752.112          47.000  
J 1  40833837.060   214583256.201        -218.207          44.000  
G10  27354923.641   143751084.018        2739.897          37.000  
G 5  25366765.513   133303264.797       -3838.396          42.000  
G20  23906478.031   125629388.650        2079.590          45.000  
J 2  38978533.940   204833652.672        -527.554          43.000  
G13  24128855.158   126798070.488       -2845.911          45.000  
G18  23786958.975   125001369.490       -1553.021          45.000  
J 7  39329208.853   206676397.094        -700.057          38.000  
J 3                                                                
G12                                                                
> 2020 11  5  4 48 32.0070000  0 14                     
G28  26377036.360   138612291.891       -1752.479          38.000  
G23  24315464.646   127778643.787        2146.103          44.000  
G15  22448062.486   117965432.184       -1167.125          47.000  
G24  22325015.714   117318817.394         751.852          46.000  
J 1  40833878.647   214583474.210        -217.932          44.000  
G10  27354402.243   143748343.575        2740.607          37.000  
G 5  25367495.889   133307102.980       -3838.310          41.000  
G20  23906082.370   125627309.036        2079.448          44.000  
J 2  38978634.373   204834180.171        -527.412          43.000  
G13  24129396.720   126800916.255       -2845.645          45.000  
G18  23787254.513   125002922.592       -1553.218          45.000  
J 7  39329342.068   206677097.115        -699.861          38.000  
J 3                                                                
G12                                                                
> 2020 11  5  4 48 33.0070000  0 14                     
G28  26377369.896   138614044.898       -1753.070          38.000  
G23  24315056.241   127776497.693        2146.156          44.000  
G15  22448284.608   117966599.301       -1167.046          48.000  
G24  22324872.670   117318065.838         751.397          47.000  
J 1  40833920.069   214583692.022        -217.645          44.000  
G10  27353880.683   143745602.968        2741.093          36.000  
G 5  25368226.197   133310941.275       -3838.194          41.000  
G20  23905686.667   125625229.594        2079.422          44.000  
J 2  38978734.677   204834707.628        -527.438          43.000  
G13  24129938.282   126803762.003       -2845.571          45.000  
G18  23787550.200   125004476.191       -1553.854          45.000  
J 7  39329475.241   206677797.006        -699.925          38.000  
J 3                                                                
G12                                                                
> 2020 11  5  4 48 34.0070000  0 14                     
G28  26377703.461   138615798.105       -1753.587          39.000  
G23  24314647.823   127774351.510        2146.164          44.000  
G15  22448506.678   117967766.385       -1167.202          47.000  
G24  22324729.645   117317314.517         751.184          47.000  
J 1  40833961.511   214583909.460        -217.438          44.000  
G10  27353359.154   143742862.035        2740.822          37.000  
G 5  25368956.530   133314779.502       -3838.089          41.000  
G20  23905290.965   125623150.145        2079.328          45.000  
J 2  38978834.941   204835234.842        -527.244          43.000  
G13  24130479.825   126806607.554       -2845.539          45.000  
G18  23787845.937   125006030.082       -1554.188          45.000  
J 7  39329608.317   206678496.544        -699.364          38.000  
J 3                                                                
G12                                                                
> 2020 11  5  4 48 35.0070000  0 14                     
G28  26378037.130   138617551.644       -1754.098          39.000  
G23  24314239.385   127772205.381        2145.907          44.000  
G15  22448728.758   117968933.566       -1167.412          47.000  
G24  22324586.684   117316563.606         750.582          47.000  
J 1  40834002.901   214584126.632        -217.090          44.000  
G10  27352837.585   143740120.854        2741.353          37.000  
G 5  25369686.928   133318617.792       -3838.437          41.000  
G20  23904895.297   125621070.816        2079.030          45.000  
J 2  38978935.196   204835761.953        -527.200          43.000  
G13  24131021.394   126809453.031       -2845.604          45.000  
G18  23788141.753   125007584.409       -1554.710          45.000  
J 7  39329741.354   206679195.926        -699.466          38.000  
J 3                                                                
G12                                                                
> 2020 11  5  4 48 36.0070000  0 14                     
G28  26378370.811   138619305.346       -1754.009          39.000  
G23  24313830.957   127770059.123        2146.365          44.000  
G15  22448950.776   117970100.681       -1167.071          47.000  
G24  22324443.879   117315812.908         750.486          47.000  
J 1  40834044.219   214584343.406        -216.553          44.000  
G10  27352315.889   143737379.291        2741.853          37.000  
G 5  25370417.297   133322455.981       -3838.236          41.000  
G20  23904499.596   125618991.437        2079.467          45.000  
J 2  38979035.479   204836288.812        -526.743          43.000  
G13  24131562.781   126812298.270       -2845.170          45.000  
G18  23788437.556   125009139.011       -1554.906          45.000  
J 7  39329874.381   206679894.918        -698.488          38.000  
J 3                                                                
G12                                                                
> 2020 11  5  4 48 37.0070000  0 14                     
G28  26378704.488   138621059.272       -1754.335          39.000  
G23  24313422.522   127767912.804        2146.217          44.000  
G15  22449172.911   117971267.784       -1167.160          48.000  
G24  22324301.137   117315062.477         750.018          47.000  
J 1  40834085.366   214584559.820        -216.467          44.000  
G10  27351794.109   143734637.401        2741.904          37.000  
G 5  25371147.625   133326294.111       -3838.386          41.000  
G20  23904103.933   125616912.089        2079.124          45.000  
J 2  38979135.797   204836815.456        -526.757          43.000  
G13  24132104.221   126815143.310       -2845.184          45.000  
G18  23788733.467   125010693.926       -1555.294          45.000  
J 7  39330007.359   206680593.654        -698.582          38.000  
J 3                                                                
G12                                                                
> 2020 11  5  4 48 38.0070000  0 14                     
G28  26379038.329   138622813.637       -1754.836          38.000  
G23  24313014.196   127765766.620        2145.993          43.000  
G15  22449395.011   117972435.089       -1167.596          47.000  
G24  22324158.272   117314312.500         749.660          46.000  
J 1  40834126.511   214584776.062        -216.174          44.000  
G10  27351272.401   143731895.370        2742.345          37.000  
G 5  25371877.982   133330132.378       -3838.638          41.000  
G20  23903708.237   125614832.937        2079.090          44.000  
J 2  38979236.062   204837342.078        -526.433          43.000  
G13  24132645.720   126817988.371       -2845.090          45.000  
G18  23789029.413   125012249.375       -1555.868          44.000  
J 7  39330140.296   206681292.298        -698.776          38.000  
J 3                                                                
G12                                                                
> 2020 11  5  4 48 39.0070000  0 14                     
G28  26379372.251   138624568.463       -1755.253          38.000  
G23  24312605.883   127763620.630        2145.873          43.000  
G15  22449617.238   117973602.633       -1167.751          47.000  
G24  22324015.647   117313563.061         749.087          46.000  
J 1  40834167.667   214584992.216        -216.150          44.000  
G10  27350750.692   143729153.306        2741.666          37.000  
G 5  25372608.500   133333970.862       -3838.873          41.000  
G20  23903312.645   125612754.063        2078.744          44.000  
J 2  38979336.335   204837868.769        -526.686          43.000  
G13  24133187.108   126820833.508       -2845.265          45.000  
G18  23789325.457   125013805.400       -1556.290          45.000  
J 7  39330273.333   206681990.884        -698.665          38.000  
J 3                                                                
G12                                                                
> 2020 11  5  4 48 40.0070000  0 13                     
G28  26379706.249   138626323.816       -1755.882          38.000  
G23  24312197.574   127761474.866        2145.610          43.000  
G15  22449839.436   117974770.464       -1168.090          47.000  
G24  22323873.210   117312814.195         748.475          46.000  
J 1  40834208.670   214585208.304        -216.309          44.000  
G10  27350228.887   143726411.159        2741.945          37.000  
G 5  25373338.989   133337809.576       -3839.138          41.000  
G20  23902917.100   125610675.501        2078.136          44.000  
J 2  38979436.556   204838395.538        -527.026          43.000  
G13  24133728.569   126823678.756       -2845.614          45.000  
G18  23789621.700   125015362.052       -1557.119          44.000  
J 7  39330406.297   206682689.472        -698.863          38.000  
J 3                                                                
> 2020 11  5  4 48 41.0070000  0 13                     
G28  26380040.413   138628079.722       -1755.935          38.000  
G23  24311789.272   127759329.370        2145.736          43.000  
G15  22450061.655   117975938.622       -1168.094          47.000  
G24  22323730.876   117312065.949         748.177          46.000  
J 1  40834249.731   214585424.355        -215.784          44.000  
G10  27349707.034   143723669.023        2742.209          37.000  
G 5  25374069.595   133341648.569       -3839.058          41.000  
G20  23902521.547   125608597.276        2078.141          44.000  
J 2  38979536.848   204838922.421        -526.662          43.000  
G13  24134270.087   126826524.144       -2845.350          45.000  
G18  23789918.105   125016919.353       -1557.374          45.000  
J 7  39330539.266   206683388.096        -698.717          37.000  
J 3                                                                
> 2020 11  5  4 48 42.0070000  0 13                     
G28  26380374.647   138629836.042       -1756.241          38.000  
G23  24311381.020   127757183.999        2145.365          43.000  
G15  22450284.024   117977106.949       -1168.321          47.000  
G24  22323588.575   117311318.159         747.577          46.000  
J 1  40834290.881   214585640.235        -215.961          44.000  
G10  27349185.192   143720926.743        2742.399          37.000  
G 5  25374800.203   133345487.692       -3839.140          41.000  
G20  23902126.116   125606519.241        2078.001          44.000  
J 2  38979637.124   204839449.303        -526.952          43.000  
G13  24134811.562   126829369.539       -2845.257          45.000  
G18  23790214.528   125018477.171       -1558.033          45.000  
J 7  39330672.093   206684086.583        -698.222          38.000  
J 3                                                                
> 2020 11  5  4 48 43.0070000  0 13                     
G28  26380709.038   138631592.870       -1757.540          39.000  
G23  24310972.840   127755038.829        2144.968          44.000  
G15  22450506.332   117978275.545       -1168.801          48.000  
G24  22323446.309   117310570.929         746.853          47.000  
J 1  40834331.944   214585856.027        -215.900          44.000  
G10  27348663.401   143718184.403        2742.289          37.000  
G 5  25375530.800   133349327.031       -3839.672          42.000  
G20  23901730.724   125604441.494        2077.532          45.000  
J 2  38979737.435   204839976.225        -527.000          43.000  
G13  24135353.016   126832215.013       -2845.444          45.000  
G18  23790511.149   125020035.587       -1558.896          45.000  
J 7  39330804.965   206684785.095        -698.582          38.000  
J 3                                                                
> 2020 11  5  4 48 44.0070000  0 13                     
G28  26381043.476   138633350.481       -1758.047          38.000  
G23  24310564.779   127752894.193        2144.385          43.000  
G15  22450728.756   117979444.707       -1169.338          47.000  
G24  22323304.349   117309824.589         746.005          46.000  
J 1  40834372.977   214586072.043        -216.016          44.000  
G10  27348141.615   143715442.334        2742.383          37.000  
G 5  25376261.532   133353166.900       -3839.928          42.000  
G20  23901335.402   125602364.350        2077.043          44.000  
J 2  38979837.878   204840503.532        -527.443          43.000  
G13  24135894.643   126835060.898       -2846.028          45.000  
G18  23790807.848   125021594.902       -1559.588          45.000  
J 7  39330938.012   206685483.867        -698.694          38.000  
J 3                                                                
> 2020 11  5  4 48 45.0070000  0 13                     
G28  26381377.985   138635108.659       -1758.335          39.000  
G23  24310156.776   127750749.808        2144.337          44.000  
G15  22450951.312   117980614.198       -1169.694          47.000  
G24  22323162.421   117309078.834         745.563          47.000  
J 1  40834414.033   214586288.032        -215.826          44.000  
G10  27347619.834   143712700.267        2742.137          37.000  
G 5  25376992.324   133357007.051       -3840.152          42.000  
G20  23900940.144   125600287.556        2076.636          45.000  
J 2  38979938.272   204841030.960        -527.501          43.000  
G13  24136436.225   126837906.947       -2846.286          45.000  
G18  23791104.693   125023154.882       -1560.187          45.000  
J 7  39331071.113   206686182.699        -699.139          38.000  
J 3                                                                
> 2020 11  5  4 48 46.0070000  0 13                     
G28  26381712.594   138636867.143       -1758.890          39.000  
G23  24309748.725   127748605.442        2144.627          44.000  
G15  22451173.927   117981783.742       -1169.384          48.000  
G24  22323020.601   117308333.434         745.471          48.000  
J 1  40834454.980   214586503.736        -215.509          45.000  
G10  27347097.937   143709957.924        2742.609          38.000  
G 5  25377723.105   133360847.228       -3840.039          42.000  
G20  23900545.001   125598210.839        2076.777          45.000  
J 2  38980038.538   204841558.249        -527.210          44.000  
G13  24136977.704   126840752.866       -2845.876          46.000  
G18  23791401.602   125024715.258       -1560.457          45.000  
J 7  39331203.997   206686881.270        -698.707          39.000  
J 3                                                                
> 2020 11  5  4 48 47.0070000  0 13                     
G28  26382047.195   138638625.855       -1758.562          39.000  
G23  24309340.625   127746461.057        2144.173          44.000  
G15  22451396.508   117982953.320       -1169.673          47.000  
G24  22322878.955   117307588.360         744.934          47.000  
J 1  40834496.027   214586719.105        -215.204          44.000  
G10  27346576.034   143707215.299        2742.462          38.000  
G 5  25378453.828   133364687.370       -3839.984          42.000  
G20  23900149.731   125596134.179        2076.631          45.000  
J 2  38980138.831   204842085.368        -527.091          43.000  
G13  24137519.134   126843598.637       -2845.688          45.000  
G18  23791698.510   125026275.984       -1560.811          45.000  
J 7  39331336.829   206687579.586        -698.110          38.000  
J 3                                                                
> 2020 11  5  4 48 48.0070000  0 13                     
G28  26382381.977   138640384.827       -1759.164          39.000  
G23  24308932.573   127744316.574        2144.629          44.000  
G15  22451619.060   117984122.871       -1169.631          48.000  
G24  22322737.113   117306843.567         744.604          47.000  
J 1  40834537.013   214586934.117        -214.807          44.000  
G10  27346054.108   143704472.316        2743.305          37.000  
G 5  25379184.528   133368527.477       -3840.003          41.000  
G20  23899754.599   125594057.532        2076.488          45.000  
J 2  38980239.071   204842612.267        -526.863          43.000  
G13  24138060.688   126846444.225       -2845.581          45.000  
G18  23791995.607   125027837.038       -1561.336          45.000  
J 7  39331469.659   206688277.624        -697.933          38.000  
J 3                                                                
> 2020 11  5  4 48 49.0070000  0 13                     
G28  26382716.715   138642144.115       -1759.414          39.000  
G23  24308524.417   127742172.160        2144.350          44.000  
G15  22451841.669   117985292.529       -1169.713          48.000  
G24  22322595.411   117306099.169         744.085          47.000  
J 1  40834577.950   214587148.879        -214.673          44.000  
G10  27345532.040   143701729.129        2743.244          38.000  
G 5  25379915.359   133372367.647       -3840.396          42.000  
G20  23899359.459   125591980.991        2076.506          45.000  
J 2  38980339.363   204843139.065        -526.802          43.000  
G13  24138602.095   126849289.713       -2845.353          45.000  
G18  23792292.734   125029398.520       -1561.792          45.000  
J 7  39331602.471   206688975.453        -697.640          38.000  
J 3                                                                
> 2020 11  5  4 48 50.0070000  0 13                     
G28  26383051.640   138643903.612       -1759.338          39.000  
G23  24308116.278   127740027.668        2144.413          44.000  
G15  22452064.287   117986462.152       -1169.522          47.000  
G24  22322453.796   117305355.024         744.075          47.000  
J 1  40834618.621   214587363.265        -214.191          44.000  
G10  27345009.926   143698985.594        2743.931          38.000  
G 5  25380646.088   133376207.736       -3840.227          42.000  
G20  23898964.206   125589904.474        2076.565          45.000  
J 2  38980439.563   204843665.656        -526.608          43.000  
G13  24139143.516   126852135.023       -2845.127          45.000  
G18  23792589.810   125030960.314       -1561.986          45.000  
J 7  39331735.093   206689672.989        -697.459          38.000  
J 3                                                                
> 2020 11  5  4 48 51.0070000  0 13                     
G28  26383386.541   138645663.495       -1760.152          39.000  
G23  24307708.228   127737883.235        2144.308          44.000  
G15  22452286.785   117987631.921       -1169.954          47.000  
G24  22322312.214   117304611.296         743.382          47.000  
J 1  40834659.392   214587577.441        -214.148          44.000  
G10  27344487.734   143696241.888        2743.246          38.000  
G 5  25381376.870   133380047.922       -3840.671          42.000  
G20  23898569.092   125587828.094        2076.343          45.000  
J 2  38980539.659   204844192.155        -526.496          43.000  
G13  24139684.890   126854980.291       -2845.262          45.000  
G18  23792887.128   125032522.572       -1562.672          45.000  
J 7  39331867.867   206690370.349        -697.145          38.000  
J 3                                                                
> 2020 11  5  4 48 52.0070000  0 13                     
G28  26383721.519   138647423.909       -1760.830          39.000  
G23  24307300.130   127735739.061        2144.079          44.000  
G15  22452509.499   117988801.989       -1170.291          47.000  
G24  22322170.870   117303868.161         742.720          47.000  
J 1  40834700.127   214587791.554        -214.014          44.000  
G10  27343965.649   143693498.126        2744.033          38.000  
G 5  25382107.688   133383888.364       -3840.839          42.000  
G20  23898174.102   125585752.058        2075.954          45.000  
J 2  38980639.848   204844718.779        -526.838          43.000  
G13  24140226.375   126857825.676       -2845.244          45.000  
G18  23793184.539   125034085.460       -1563.184          45.000  
J 7  39332000.553   206691067.754        -697.569          38.000  
J 3                                                                
> 2020 11  5  4 48 53.0070000  0 13                     
G28  26384056.691   138649184.909       -1761.644          38.000  
G23  24306892.135   127733595.196        2143.669          44.000  
G15  22452732.163   117989972.407       -1170.591          47.000  
G24  22322029.574   117303125.634         742.207          47.000  
J 1  40834740.854   214588005.684        -214.252          44.000  
G10  27343443.504   143690754.438        2743.776          38.000  
G 5  25382838.549   133387729.101       -3841.111          42.000  
G20  23897779.094   125583676.393        2075.504          45.000  
J 2  38980740.181   204845245.543        -526.848          43.000  
G13  24140767.824   126860671.256       -2845.711          45.000  
G18  23793482.108   125035649.039       -1563.851          45.000  
J 7  39332133.321   206691765.203        -697.426          38.000  
J 3                                                                
> 2020 11  5  4 48 54.0070000  0 13                     
G28  26384391.844   138650946.176       -1761.655          39.000  
G23  24306484.108   127731451.328        2143.706          44.000  
G15  22452954.890   117991142.893       -1170.759          47.000  
G24  22321888.244   117302383.463         741.772          47.000  
J 1  40834781.537   214588219.524        -213.751          44.000  
G10  27342921.407   143688010.492        2743.577          38.000  
G 5  25383569.412   133391569.865       -3840.682          42.000  
G20  23897384.095   125581600.811        2075.265          45.000  
J 2  38980840.274   204845772.182        -526.821          43.000  
G13  24141309.300   126863516.715       -2845.656          45.000  
G18  23793779.787   125037213.020       -1564.271          45.000  
J 7  39332265.975   206692462.444        -697.653          38.000  
J 3                                                                
> 2020 11  5  4 48 55.0070000  0 13                     
G28  26384727.136   138652707.972       -1762.038          39.000  
G23  24306076.206   127729307.686        2143.560          44.000  
G15  22453177.681   117992313.654       -1170.809          47.000  
G24  22321747.031   117301641.853         741.417          47.000  
J 1  40834822.180   214588433.288        -213.678          44.000  
G10  27342399.154   143685266.457        2744.382          38.000  
G 5  25384300.322   133395410.863       -3841.041          42.000  
G20  23896989.174   125579525.519        2075.279          45.000  
J 2  38980940.549   204846298.906        -527.099          43.000  
G13  24141850.874   126866362.264       -2845.491          45.000  
G18  23794077.406   125038777.595       -1564.405          45.000  
J 7  39332398.657   206693159.660        -697.200          38.000  
J 3                                                                
> 2020 11  5  4 48 56.0070000  0 13                     
G28  26385062.410   138654469.995       -1762.533          39.000  
G23  24305668.411   127727163.974        2143.606          44.000  
G15  22453400.474   117993484.383       -1170.735          47.000  
G24  22321606.024   117300900.504         741.084          47.000  
J 1  40834862.683   214588646.692        -213.263          44.000  
G10  27341876.900   143682522.129        2744.277          38.000  
G 5  25385031.268   133399251.793       -3840.944          42.000  
G20  23896594.283   125577450.248        2075.106          45.000  
J 2  38981040.688   204846825.378        -526.488          43.000  
G13  24142392.387   126869207.633       -2845.410          45.000  
G18  23794375.154   125040342.521       -1565.136          45.000  
J 7  39332531.198   206693856.584        -696.997          38.000  
J 3                                                                
> 2020 11  5  4 48 57.0070000  0 13                     
G28  26385397.747   138656232.360       -1762.725          39.000  
G23  24305260.497   127725020.354        2143.419          44.000  
G15  22453623.313   117994655.267       -1170.990          47.000  
G24  22321465.057   117300159.602         740.562          46.000  
J 1  40834903.226   214588859.888        -213.141          44.000  
G10  27341354.608   143679777.604        2744.622          38.000  
G 5  25385762.156   133403092.847       -3841.171          42.000  
G20  23896199.315   125575375.132        2075.073          45.000  
J 2  38981140.909   204847351.816        -526.554          43.000  
G13  24142933.755   126872052.954       -2845.232          45.000  
G18  23794673.039   125041907.894       -1565.621          45.000  
J 7  39332663.700   206694553.334        -696.559          38.000  
J 3                                                                
> 2020 11  5  4 48 58.0070000  0 13                     
G28  26385733.222   138657995.088       -1763.191          39.000  
G23  24304852.594   127722876.774        2143.421          44.000  
G15  22453846.140   117995826.254       -1171.188          47.000  
G24  22321324.220   117299419.077         740.338          47.000  
J 1  40834943.847   214589072.829        -212.939          44.000  
G10  27340832.318   143677032.852        2745.093          38.000  
G 5  25386493.092   133406933.923       -3841.037          42.000  
G20  23895804.459   125573300.143        2074.910          44.000  
J 2  38981241.165   204847878.143        -526.364          43.000  
G13  24143475.151   126874898.218       -2845.448          45.000  
G18  23794971.012   125043473.699       -1565.987          45.000  
J 7  39332796.170   206695249.938        -696.572          38.000  
J 3                                                                
> 2020 11  5  4 48 59.0070000  0 13                     
G28  26386068.709   138659758.218       -1763.225          39.000  
G23  24304444.705   127720733.313        2143.637          44.000  
G15  22454068.988   117996997.406       -1171.070          47.000  
G24  22321183.412   117298679.043         739.926          47.000  
J 1  40834984.344   214589285.601        -212.561          44.000  
G10  27340309.985   143674287.981        2744.911          38.000  
G 5  25387224.075   133410775.145       -3841.153          42.000  
G20  23895409.724   125571225.354        2074.783          45.000  
J 2  38981341.300   204848404.457        -526.183          43.000  
G13  24144016.550   126877743.484       -2845.416          46.000  
G18  23795269.097   125045040.029       -1566.473          45.000  
J 7  39332928.683   206695946.422        -696.813          38.000  
J 3                                                                
> 2020 11  5  4 49  0.0070000  0 13                     
G28  26386404.243   138661521.407       -1763.473          39.000  
G23  24304036.825   127718589.644        2143.669          44.000  
G15  22454291.843   117998168.399       -1170.948          48.000  
G24  22321042.632   117297939.122         739.818          47.000  
J 1  40835024.733   214589497.862        -212.335          44.000  
G10  27339787.574   143671542.608        2745.535          38.000  
G 5  25387955.020   133414616.150       -3840.726          42.000  
G20  23895015.014   125569150.417        2075.039          45.000  
J 2  38981441.358   204848930.406        -525.954          43.000  
G13  24144557.906   126880588.396       -2845.040          45.000  
G18  23795567.172   125046606.506       -1566.550          45.000  
J 7  39333061.107   206696642.420        -695.767          38.000  
J 3                                                                
> 2020 11  5  4 49  1.0070000  0 13                     
G28  26386739.832   138663284.915       -1763.574          39.000  
G23  24303628.912   127716445.988        2143.711          44.000  
G15  22454514.673   117999339.467       -1171.100          48.000  
G24  22320901.903   117297199.555         739.347          47.000  
J 1  40835065.129   214589709.829        -211.743          44.000  
G10  27339264.994   143668796.985        2745.766          38.000  
G 5  25388685.889   133418457.210       -3840.913          42.000  
G20  23894620.256   125567075.596        2074.802          45.000  
J 2  38981541.440   204849456.230        -525.748          44.000  
G13  24145099.258   126883433.189       -2844.631          46.000  
G18  23795865.360   125048173.414       -1567.122          45.000  
J 7  39333193.474   206697338.260        -695.769          38.000  
J 3                                                                
> 2020 11  5  4 49  2.0070000  0 13                     
G28  26387075.504   138665048.743       -1764.011          39.000  
G23  24303220.862   127714302.377        2143.488          44.000  
G15  22454737.496   118000510.614       -1171.205          47.000  
G24  22320761.154   117296460.394         738.881          47.000  
J 1  40835105.319   214589921.570        -211.829          44.000  
G10  27338742.508   143666051.151        2745.792          38.000  
G 5  25389416.859   133422298.313       -3841.461          42.000  
G20  23894225.424   125565000.890        2074.434          45.000  
J 2  38981641.474   204849981.963        -525.882          44.000  
G13  24145640.582   126886277.932       -2844.564          45.000  
G18  23796163.485   125049740.744       -1567.709          45.000  
J 7  39333325.882   206698033.869        -695.426          38.000  
J 3                                                                
> 2020 11  5  4 49  3.0070000  0 13                     
G28  26387411.230   138666812.946       -1764.055          39.000  
G23  24302812.945   127712158.862        2143.550          44.000  
G15  22454960.317   118001681.911       -1171.322          48.000  
G24  22320620.666   117295721.657         738.610          47.000  
J 1  40835145.546   214590133.082        -211.292          44.000  
J 3  39856461.807                3      -1040.806          22.000  
G10  27338219.905   143663305.135        2746.204          38.000  
G 5  25390147.772   133426139.471       -3841.054          42.000  
G20  23893830.589   125562926.346        2074.470          45.000  
J 2  38981741.496   204850507.614        -525.609          43.000  
G13  24146181.880   126889122.646       -2844.626          45.000  
G18  23796461.850   125051308.548       -1568.017          45.000  
J 7  39333458.266   206698729.360        -695.442          38.000  
> 2020 11  5  4 49  4.0070000  0 13                     
G28  26387746.979   138668577.486       -1764.714          39.000  
G23  24302405.020   127710015.392        2143.115          44.000  
G15  22455183.191   118002853.300       -1171.554          48.000  
G24  22320480.093   117294983.308         737.953          47.000  
J 1  40835185.670   214590344.352        -211.371          44.000  
J 3  39856659.829                3      -1040.806          22.000  
G10  27337697.299   143660558.897        2746.110          38.000  
G 5  25390878.704   133429980.741       -3841.737          42.000  
G20  23893435.838   125560851.913        2074.270          45.000  
J 2  38981841.417   204851033.162        -525.629          43.000  
G13  24146723.240   126891967.272       -2844.822          46.000  
G18  23796760.239   125052876.776       -1568.724          45.000  
J 7  39333590.535   206699424.651        -695.470          38.000  
> 2020 11  5  4 49  5.0070000  0 13                     
G28  26388082.893   138670342.470       -1765.574          39.000  
G23  24301997.110   127707872.057        2143.021          44.000  
G15  22455406.160   118004024.890       -1171.830          48.000  
G24  22320339.712   117294245.444         737.489          47.000  
J 1  40835225.776   214590555.460        -211.163          44.000  
J 3  39856859.117                3      -1040.806          22.000  
G10  27337174.701   143657812.531        2746.005          38.000  
G 5  25391609.697   133433822.121       -3841.530          42.000  
G20  23893041.076   125558777.718        2073.923          45.000  
J 2  38981941.440   204851558.727        -525.608          43.000  
G13  24147264.535   126894811.925       -2845.042          45.000  
G18  23797058.766   125054445.529       -1569.112          45.000  
J 7  39333722.728   206700119.851        -695.397          38.000  
> 2020 11  5  4 49  6.0070000  0 13                     
G28  26388418.857   138672107.827       -1765.461          39.000  
G23  24301589.194   127705728.836        2143.154          44.000  
G15  22455629.052   118005196.646       -1171.743          48.000  
G24  22320199.302   117293508.048         737.365          47.000  
J 1  40835265.950   214590766.394        -210.767          44.000  
J 3  39857057.224                3      -1040.806          22.000  
G10  27336652.076   143655066.044        2746.022          37.000  
G 5  25392340.732   133437663.636       -3841.357          42.000  
G20  23892646.498   125556703.711        2074.082          45.000  
J 2  38982041.529   204852084.244        -525.281          43.000  
G13  24147805.788   126897656.549       -2844.398          45.000  
G18  23797357.437   125056014.794       -1569.374          45.000  
J 7  39333854.992   206700814.917        -694.789          38.000  
> 2020 11  5  4 49  7.0070000  0 13                     
G28  26388754.799   138673873.719       -1766.333          39.000  
G23  24301181.437   127703585.846        2142.889          44.000  
G15  22455852.068   118006368.682       -1172.159          48.000  
G24  22320059.001   117292771.191         736.615          47.000  
J 1  40835306.120   214590977.255        -210.828          44.000  
J 3  39857257.957                3      -1040.806          23.000  
G10  27336129.344   143652319.431        2747.020          38.000  
G 5  25393071.761   133441505.386       -3841.622          42.000  
G20  23892251.823   125554630.014        2073.296          45.000  
J 2  38982141.517   204852609.858        -525.739          43.000  
G13  24148347.096   126900501.294       -2844.918          45.000  
G18  23797656.138   125057584.668       -1570.145          45.000  
J 7  39333987.219   206701509.994        -695.145          38.000  
> 2020 11  5  4 49  8.0070000  0 13                     
G28  26389091.031   138675640.387       -1767.047          39.000  
G23  24300773.721   127701443.348        2142.404          44.000  
G15  22456075.292   118007541.266       -1172.842          48.000  
G24  22319918.912   117292035.158         735.736          47.000  
J 1  40835346.207   214591188.319        -211.151          44.000  
J 3  39857455.561                3      -1040.806          23.000  
G10  27335606.786   143649573.127        2746.131          38.000  
G 5  25393802.839   133445347.657       -3842.417          42.000  
G20  23891857.249   125552556.874        2072.892          45.000  
J 2  38982241.650   204853135.807        -526.017          43.000  
G13  24148888.428   126903346.404       -2845.225          45.000  
G18  23797954.968   125059155.428       -1571.255          45.000  
J 7  39334119.645   206702205.342        -695.406          38.000  
> 2020 11  5  4 49  9.0070000  0 13                     
G28  26389427.328   138677407.697       -1767.053          39.000  
G23  24300366.074   127699301.235        2141.997          44.000  
G15  22456298.557   118008714.279       -1173.045          48.000  
G24  22319778.976   117291299.846         735.164          47.000  
J 1  40835386.433   214591399.456        -211.029          44.000  
J 3  39857658.261                3      -1040.806          23.000  
G10  27335084.059   143646826.903        2746.320          37.000  
G 5  25394534.200   133449190.324       -3842.705          42.000  
G20  23891462.783   125550484.194        2072.742          45.000  
J 2  38982341.830   204853661.995        -526.048          43.000  
G13  24149430.006   126906191.764       -2845.228          45.000  
G18  23798254.022   125060726.945       -1571.699          45.000  
J 7  39334252.043   206702900.818        -695.584          38.000  
> 2020 11  5  4 49 10.0070000  0 13                     
G28  26389763.657   138679175.346       -1767.794          39.000  
G23  24299958.394   127697159.140        2141.877          44.000  
G15  22456521.831   118009887.364       -1173.320          47.000  
G24  22319639.138   117290564.911         734.485          46.000  
J 1  40835426.599   214591610.319        -210.889          44.000  
G10  27334561.364   143644080.442        2746.799          37.000  
G 5  25395265.426   133453032.990       -3842.712          42.000  
G20  23891068.476   125548411.633        2072.198          45.000  
J 2  38982441.920   204854188.067        -526.342          43.000  
G13  24149971.558   126909037.043       -2845.454          45.000  
G18  23798553.193   125062298.879       -1572.405          45.000  
J 7  39334384.415   206703596.091        -695.506          38.000  
J 3                                                                
> 2020 11  5  4 49 11.0070000  0 13                     
G28  26390100.143   138680943.384       -1768.553          39.000  
G23  24299550.692   127695017.143        2141.828          44.000  
G15  22456745.078   118011060.602       -1173.328          48.000  
G24  22319499.340   117289830.418         734.196          47.000  
J 1  40835466.629   214591820.997        -210.699          44.000  
G10  27334038.658   143641333.820        2746.554          37.000  
G 5  25395996.686   133456875.765       -3842.674          42.000  
G20  23890674.163   125546339.227        2072.266          45.000  
J 2  38982541.985   204854714.080        -526.084          44.000  
G13  24150512.967   126911882.285       -2845.461          45.000  
G18  23798852.314   125063871.288       -1572.855          45.000  
J 7  39334516.762   206704291.210        -694.971          38.000  
J 3                                                                
> 2020 11  5  4 49 12.0070000  0 13                     
G28  26390436.748   138682712.049       -1769.578          39.000  
G23  24299143.030   127692875.493        2141.248          44.000  
G15  22456968.410   118012234.243       -1173.941          48.000  
G24  22319359.671   117289096.627         733.240          47.000  
J 1  40835506.777   214592031.713        -211.096          44.000  
G10  27333516.084   143638587.268        2746.539          37.000  
G 5  25396728.055   133460718.919       -3843.442          42.000  
G20  23890279.903   125544267.260        2071.502          45.000  
J 2  38982642.097   204855240.288        -526.384          43.000  
G13  24151054.412   126914727.755       -2845.802          45.000  
G18  23799151.768   125065444.430       -1573.768          45.000  
J 7  39334649.000   206704986.469        -695.397          38.000  
J 3                                                                
> 2020 11  5  4 49 13.0070000  0 13                     
G28  26390773.441   138684481.359       -1769.598          39.000  
G23  24298735.531   127690734.252        2140.797          44.000  
G15  22457191.905   118013408.334       -1174.525          48.000  
G24  22319220.271   117288363.593         732.360          47.000  
J 1  40835546.939   214592242.528        -211.206          44.000  
G10  27332993.488   143635840.818        2746.995          37.000  
G 5  25397459.404   133464562.467       -3843.989          42.000  
G20  23889885.678   125542195.763        2071.050          45.000  
J 2  38982742.240   204855766.761        -526.678          43.000  
G13  24151595.998   126917573.489       -2846.076          45.000  
G18  23799451.270   125067018.352       -1574.504          45.000  
J 7  39334781.397   206705681.882        -695.773          38.000  
J 3                                                                
> 2020 11  5  4 49 14.0070000  0 13                     
G28  26391110.308   138686251.529       -1770.251          39.000  
G23  24298328.110   127688593.532        2140.614          43.000  
G15  22457415.443   118014583.014       -1174.946          48.000  
G24  22319080.931   117287631.392         731.773          47.000  
J 1  40835587.158   214592453.580        -210.986          44.000  
G10  27332470.953   143633094.717        2746.055          37.000  
G 5  25398190.823   133468406.582       -3844.763          42.000  
G20  23889491.625   125540124.887        2070.581          45.000  
J 2  38982842.459   204856293.637        -527.220          43.000  
G13  24152137.585   126920419.639       -2846.226          46.000  
G18  23799750.987   125068593.200       -1575.338          45.000  
J 7  39334913.901   206706377.585        -695.469          38.000  
J 3                                                                
> 2020 11  5  4 49 15.0070000  0 13                     
G28  26391447.325   138688022.470       -1771.029          39.000  
G23  24297920.925   127686453.300        2140.286          44.000  
G15  22457639.133   118015758.226       -1175.241          48.000  
G24  22318941.741   117286900.047         731.134          47.000  
J 1  40835627.397   214592664.838        -211.237          44.000  
G10  27331948.404   143630348.771        2746.497          37.000  
G 5  25398922.480   133472251.133       -3844.399          42.000  
G20  23889097.599   125538054.568        2070.315          45.000  
J 2  38982942.706   204856820.817        -527.213          43.000  
G13  24152679.346   126923266.157       -2846.561          45.000  
G18  23800050.871   125070168.910       -1576.046          45.000  
J 7  39335046.392   206707073.559        -695.961          38.000  
J 3                                                                
> 2020 11  5  4 49 16.0070000  0 13                     
G28  26391784.482   138689794.047       -1772.211          39.000  
G23  24297513.808   127684313.430        2139.474          44.000  
G15  22457862.903   118016933.844       -1176.002          48.000  
G24  22318802.740   117286169.396         730.075          47.000  
J 1  40835667.609   214592876.128        -211.615          44.000  
G10  27331425.923   143627602.933        2745.734          37.000  
G 5  25399654.194   133476096.082       -3845.079          42.000  
G20  23888703.750   125535984.690        2069.338          45.000  
J 2  38983042.960   204857348.221        -527.822          43.000  
G13  24153221.108   126926112.899       -2847.234          45.000  
G18  23800350.848   125071745.364       -1577.211          45.000  
J 7  39335178.888   206707769.622        -696.136          38.000  
J 3                                                                
> 2020 11  5  4 49 17.0070000  0 13                     
G28  26392121.874   138691566.388       -1772.917          39.000  
G23  24297106.629   127682174.018        2139.063          44.000  
G15  22458086.785   118018109.981       -1176.528          47.000  
G24  22318663.917   117285439.534         729.368          47.000  
J 1  40835707.945   214593087.585        -211.566          44.000  
G10  27330903.524   143624857.312        2744.923          37.000  
G 5  25400385.936   133479941.521       -3845.728          42.000  
G20  23888309.997   125533915.339        2068.943          45.000  
J 2  38983143.432   204857875.931        -527.958          43.000  
G13  24153762.929   126928959.967       -2847.265          45.000  
G18  23800650.955   125073322.661       -1577.949          45.000  
J 7  39335311.424   206708465.962        -696.744          38.000  
J 3                                                                
> 2020 11  5  4 49 18.0070000  0 13                     
G28  26392459.291   138693339.419       -1773.196          39.000  
G23  24296699.624   127680035.047        2138.633          44.000  
G15  22458310.586   118019286.595       -1176.894          47.000  
G24  22318525.171   117284710.454         728.684          47.000  
J 1  40835748.249   214593299.187        -211.639          44.000  
G10  27330381.112   143622111.810        2745.243          37.000  
G 5  25401117.787   133483787.372       -3845.997          42.000  
G20  23887916.375   125531846.500        2068.684          44.000  
J 2  38983243.840   204858403.931        -528.023          43.000  
G13  24154304.750   126931807.357       -2847.474          45.000  
G18  23800951.189   125074900.765       -1578.498          45.000  
J 7  39335443.911   206709162.445        -696.446          38.000  
J 3                                                                
> 2020 11  5  4 49 19.0070000  0 13                     
G28  26392796.800   138695113.284       -1774.192          39.000  
G23  24296292.674   127677896.587        2138.244          44.000  
G15  22458534.723   118020463.800       -1177.497          47.000  
G24  22318386.590   117283982.240         727.676          47.000  
J 1  40835788.511   214593511.021        -211.908          44.000  
G10  27329858.699   143619366.572        2745.290          37.000  
G 5  25401849.674   133487633.774       -3846.563          42.000  
G20  23887522.899   125529778.281        2067.877          45.000  
J 2  38983344.434   204858932.319        -528.618          43.000  
G13  24154846.611   126934655.148       -2847.955          45.000  
G18  23801251.777   125076479.791       -1579.429          45.000  
J 7  39335576.408   206709859.247        -696.745          38.000  
J 3                                                                
> 2020 11  5  4 49 20.0070000  0 13                     
G28  26393134.493   138696888.028       -1775.359          39.000  
G23  24295885.954   127675758.705        2137.643          44.000  
G15  22458758.812   118021641.598       -1177.995          48.000  
G24  22318248.149   117283254.920         726.848          47.000  
J 1  40835828.795   214593723.114        -212.006          44.000  
J 3  39859846.687                3      -1044.394          23.000  
G10  27329336.390   143616621.640        2745.418          37.000  
G 5  25402581.612   133491480.732       -3847.063          42.000  
G20  23887129.385   125527710.689        2067.354          45.000  
J 2  38983445.043   204859461.110        -528.862          43.000  
G13  24155388.713   126937503.390       -2848.384          45.000  
G18  23801552.390   125078059.772       -1580.368          45.000  
J 7  39335709.097   206710556.394        -697.344          38.000  
> 2020 11  5  4 49 21.0070000  0 13                     
G28  26393472.459   138698663.360       -1775.802          39.000  
G23  24295479.177   127673621.164        2137.484          44.000  
G15  22458983.010   118022819.810       -1178.395          48.000  
G24  22318109.826   117282528.311         726.293          47.000  
J 1  40835869.171   214593935.270        -212.097          44.000  
J 3  39860044.460                3      -1045.505          23.000  
G10  27328814.030   143613876.814        2745.128          37.000  
G 5  25403313.618   133495328.068       -3847.375          42.000  
G20  23886735.992   125525643.524        2067.009          45.000  
J 2  38983545.822   204859990.113        -528.943          43.000  
G13  24155930.735   126940351.857       -2848.602          45.000  
G18  23801853.182   125079640.480       -1581.068          45.000  
J 7  39335841.798   206711253.631        -697.145          38.000  
> 2020 11  5  4 49 22.0070000  0 13                     
G28  26393810.320   138700439.160       -1775.928          39.000  
G23  24295072.488   127671483.796        2137.228          44.000  
G15  22459207.153   118023998.234       -1178.530          48.000  
G24  22317971.629   117281802.197         725.971          47.000  
J 1  40835909.544   214594147.280        -211.859          44.000  
J 3  39860240.323                3      -1048.385          24.000  
G10  27328291.572   143611131.868        2744.971          37.000  
G 5  25404045.828   133499175.572       -3847.598          42.000  
G20  23886342.632   125523576.594        2066.938          45.000  
J 2  38983646.469   204860519.120        -528.890          43.000  
G13  24156472.819   126943200.361       -2848.508          45.000  
G18  23802154.123   125081221.718       -1581.297          45.000  
J 7  39335974.486   206711950.800        -697.018          38.000  
> 2020 11  5  4 49 23.0070000  0 13                     
G28  26394148.229   138702215.540       -1776.860          39.000  
G23  24294665.749   127669346.732        2136.806          44.000  
G15  22459431.521   118025177.018       -1179.053          48.000  
G24  22317833.577   117281076.729         725.116          47.000  
J 1  40835949.869   214594359.303        -212.079          44.000  
J 3  39860438.614                3      -1044.052          24.000  
G10  27327769.222   143608386.967        2744.319          37.000  
G 5  25404778.109   133503023.381       -3847.935          42.000  
G20  23885949.392   125521510.059        2066.255          45.000  
J 2  38983747.183   204861048.300        -529.286          43.000  
G13  24157014.864   126946049.041       -2848.812          45.000  
G18  23802455.253   125082803.677       -1582.418          45.000  
J 7  39336107.164   206712648.049        -697.430          38.000  
> 2020 11  5  4 49 24.0070000  0 13                     
G28  26394486.429   138703992.385       -1777.111          39.000  
G23  24294259.162   127667209.834        2136.739          44.000  
G15  22459655.972   118026356.021       -1179.243          47.000  
G24  22317695.627   117280351.750         724.558          47.000  
J 1  40835990.245   214594571.198        -212.091          44.000  
J 3  39860637.116                3      -1045.781          25.000  
G10  27327246.853   143605641.987        2744.744          37.000  
G 5  25405510.347   133506871.364       -3848.257          42.000  
G20  23885556.243   125519443.773        2066.078          45.000  
J 2  38983847.928   204861577.491        -529.420          43.000  
G13  24157556.892   126948897.770       -2848.924          45.000  
G18  23802756.343   125084386.167       -1582.944          45.000  
J 7  39336239.870   206713345.216        -697.221          38.000  
> 2020 11  5  4 49 25.0070000  0 13                     
G28  26394824.654   138705769.826       -1777.976          39.000  
G23  24293852.611   127665073.257        2136.161          44.000  
G15  22459880.326   118027535.391       -1179.555          47.000  
G24  22317557.826   117279627.441         723.848          47.000  
J 1  40836030.655   214594783.113        -212.152          44.000  
J 3  39860833.719                3      -1048.458          24.000  
G10  27326724.534   143602897.016        2744.816          37.000  
G 5  25406242.548   133510719.678       -3848.506          42.000  
G20  23885163.131   125517377.883        2065.559          45.000  
J 2  38983948.687   204862106.856        -529.567          43.000  
G13  24158099.099   126951746.693       -2849.239          45.000  
G18  23803057.546   125085969.371       -1583.837          44.000  
J 7  39336372.526   206714042.477        -697.244          38.000  
> 2020 11  5  4 49 26.0070000  0 13                     
G28  26395163.032   138707547.948       -1778.389          39.000  
G23  24293446.020   127662937.086        2136.022          44.000  
G15  22460104.844   118028715.222       -1180.185          48.000  
G24  22317420.142   117278903.877         723.193          47.000  
J 1  40836070.962   214594995.129        -212.048          44.000  
J 3  39861033.423                3      -1049.492          25.000  
G10  27326202.205   143600152.184        2744.583          37.000  
G 5  25406974.925   133514568.416       -3848.837          42.000  
G20  23884770.071   125515312.474        2065.214          45.000  
J 2  38984049.432   204862636.479        -529.788          43.000  
G13  24158641.265   126954595.885       -2849.261          46.000  
G18  23803358.945   125087553.348       -1584.271          44.000  
J 7  39336505.227   206714739.906        -697.288          38.000  
> 2020 11  5  4 49 27.0070000  0 13                     
G28  26395501.526   138709326.972       -1779.362          39.000  
G23  24293039.584   127660801.529        2135.227          44.000  
G15  22460329.474   118029895.723       -1180.949          48.000  
G24  22317282.587   117278181.275         722.192          47.000  
J 1  40836111.392   214595207.467        -212.579          44.000  
J 3  39861233.122                3      -1048.760          25.000  
G10  27325679.868   143597407.742        2744.493          37.000  
G 5  25407707.435   133518417.774       -3849.799          42.000  
G20  23884377.144   125513247.778        2064.042          45.000  
J 2  38984150.315   204863166.581        -530.594          43.000  
G13  24159183.517   126957445.587       -2849.990          45.000  
G18  23803660.589   125089138.338       -1585.483          44.000  
J 7  39336638.115   206715437.735        -698.119          38.000  
> 2020 11  5  4 49 28.0070000  0 13                     
G28  26395840.259   138711106.684       -1780.412          39.000  
G23  24292633.268   127658666.366        2134.830          44.000  
G15  22460554.101   118031076.665       -1181.525          47.000  
G24  22317145.214   117277459.418         721.318          47.000  
J 1  40836151.798   214595419.914        -212.885          44.000  
J 3  39861431.324                3      -1046.118          25.000  
G10  27325157.576   143594663.424        2743.966          37.000  
G 5  25408440.048   133522267.527       -3850.230          42.000  
G20  23883984.301   125511183.529        2063.830          45.000  
J 2  38984251.222   204863696.916        -530.585          43.000  
G13  24159725.869   126960295.559       -2850.335          45.000  
G18  23803962.338   125090724.114       -1586.476          44.000  
J 7  39336770.930   206716135.705        -698.350          38.000  
> 2020 11  5  4 49 29.0070000  0 13                     
G28  26396179.051   138712887.209       -1780.893          39.000  
G23  24292227.049   127656531.763        2134.221          43.000  
G15  22460778.922   118032258.183       -1181.627          47.000  
G24  22317008.068   117276738.418         720.664          47.000  
J 1  40836192.292   214595632.581        -212.579          44.000  
J 3  39861630.967                3      -1043.330          25.000  
G10  27324635.411   143591919.355        2744.134          37.000  
G 5  25409172.743   133526117.831       -3850.270          42.000  
G20  23883591.589   125509119.907        2063.453          45.000  
J 2  38984352.158   204864227.649        -530.765          43.000  
G13  24160268.244   126963145.935       -2850.380          45.000  
G18  23804264.304   125092310.792       -1587.058          44.000  
J 7  39336903.816   206716833.981        -698.100          38.000  
> 2020 11  5  4 49 30.0070000  0 13                     
G28  26396517.962   138714668.394       -1781.730          39.000  
G23  24291820.902   127654397.483        2134.200          43.000  
G15  22461003.825   118033440.128       -1182.105          47.000  
G24  22316871.052   117276018.115         720.020          47.000  
J 1  40836232.712   214595845.324        -212.744          44.000  
J 3  39861830.353                3      -1046.727          25.000  
G10  27324113.222   143589175.398        2743.603          36.000  
G 5  25409905.495   133529968.528       -3850.836          42.000  
G20  23883198.997   125507056.730        2062.924          45.000  
J 2  38984453.195   204864758.598        -531.080          43.000  
G13  24160810.747   126965996.562       -2850.802          46.000  
G18  23804566.375   125093898.213       -1587.611          45.000  
J 7  39337036.808   206717532.403        -698.595          38.000  
> 2020 11  5  4 49 31.0070000  0 13                     
G28  26396857.070   138716450.238       -1781.567          39.000  
G23  24291414.732   127652263.644        2133.758          44.000  
G15  22461228.777   118034622.545       -1182.510          47.000  
G24  22316734.096   117275298.576         719.302          47.000  
J 1  40836273.199   214596058.166        -212.622          44.000  
J 3  39862030.042                3      -1046.332          25.000  
G10  27323591.051   143586431.546        2744.113          36.000  
G 5  25410638.363   133533819.641       -3851.230          42.000  
G20  23882806.491   125504994.040        2062.631          45.000  
J 2  38984554.202   204865289.805        -531.406          43.000  
G13  24161353.300   126968847.460       -2850.849          45.000  
G18  23804868.567   125095486.442       -1588.474          44.000  
J 7  39337169.701   206718230.973        -698.438          38.000  
> 2020 11  5  4 49 32.0070000  0 13                     
G28  26397196.227   138718232.759       -1782.848          39.000  
G23  24291008.709   127650130.146        2133.536          44.000  
G15  22461453.970   118035805.335       -1182.933          47.000  
G24  22316597.347   117274579.725         718.636          47.000  
J 1  40836313.690   214596271.082        -212.799          44.000  
J 3  39862230.036                3      -1046.799          26.000  
G10  27323068.911   143583687.809        2743.796          36.000  
G 5  25411371.249   133537671.094       -3851.466          42.000  
G20  23882414.096   125502931.777        2062.168          45.000  
J 2  38984655.384   204865821.204        -531.414          43.000  
G13  24161895.876   126971698.585       -2851.123          46.000  
G18  23805170.933   125097075.402       -1589.181          45.000  
J 7  39337302.647   206718929.655        -698.166          38.000  
> 2020 11  5  4 49 33.0070000  0 13                     
G28  26397535.497   138720015.724       -1783.337          39.000  
G23  24290602.686   127647996.847        2132.912          43.000  
G15  22461679.085   118036988.377       -1183.215          47.000  
G24  22316460.546   117273861.396         718.011          46.000  
J 1  40836354.288   214596483.872        -212.891          43.000  
J 3  39862430.168                3      -1046.466          25.000  
G10  27322546.753   143580943.990        2744.080          36.000  
G 5  25412104.124   133541522.741       -3851.756          42.000  
G20  23882021.669   125500869.788        2061.661          44.000  
J 2  38984756.616   204866352.648        -531.588          43.000  
G13  24162438.436   126974549.775       -2851.211          45.000  
G18  23805473.353   125098664.926       -1589.933          44.000  
J 7  39337435.558   206719628.310        -698.556          38.000  
> 2020 11  5  4 49 34.0070000  0 13                     
G28  26397874.897   138721799.459       -1784.098          39.000  
G23  24290196.879   127645864.015        2132.638          43.000  
G15  22461904.391   118038171.946       -1183.742          47.000  
G24  22316324.047   117273143.902         717.240          47.000  
J 1  40836394.806   214596696.844        -212.817          43.000  
J 3  39862628.400                3      -1046.210          25.000  
G10  27322024.675   143578200.390        2743.731          36.000  
G 5  25412837.192   133545374.885       -3852.298          41.000  
G20  23881629.400   125498808.350        2061.272          44.000  
J 2  38984857.818   204866884.433        -531.950          43.000  
G13  24162981.050   126977401.337       -2851.787          45.000  
G18  23805775.998   125100255.317       -1590.799          44.000  
J 7  39337568.555   206720327.224        -699.266          37.000  
> 2020 11  5  4 49 35.0070000  0 13                     
G28  26398214.464   138723583.761       -1784.872          39.000  
G23  24289791.124   127643731.460        2132.355          44.000  
G15  22462129.697   118039355.840       -1184.177          47.000  
G24  22316187.648   117272426.996         716.495          47.000  
J 1  40836435.383   214596909.798        -212.933          44.000  
J 3  39862828.731                3      -1046.647          26.000  
G10  27321502.541   143575456.793        2743.149          37.000  
G 5  25413570.293   133549227.319       -3852.856          42.000  
G20  23881237.157   125496747.268        2060.731          45.000  
J 2  38984959.124   204867416.329        -532.034          43.000  
G13  24163523.630   126980253.019       -2851.745          45.000  
G18  23806078.818   125101846.363       -1591.700          45.000  
J 7  39337701.586   206721026.151        -699.337          38.000  
> 2020 11  5  4 49 36.0070000  0 13                     
G28  26398554.170   138725368.700       -1785.402          40.000  
G23  24289385.353   127641599.253        2132.128          44.000  
G15  22462355.077   118040540.126       -1184.378          47.000  
G24  22316051.299   117271710.773         715.800          47.000  
J 1  40836475.817   214597122.803        -213.092          44.000  
J 3  39863027.868                3      -1045.702          26.000  
G10  27320980.457   143572713.279        2743.389          37.000  
G 5  25414303.310   133553080.079       -3852.878          42.000  
G20  23880844.955   125494686.617        2060.382          45.000  
J 2  38985060.429   204867948.429        -532.219          43.000  
G13  24164066.306   126983104.946       -2852.146          45.000  
G18  23806381.693   125103438.132       -1592.142          44.000  
J 7  39337834.603   206721725.173        -698.795          38.000  
> 2020 11  5  4 49 37.0070000  0 13                     
G28  26398894.083   138727154.217       -1785.614          40.000  
G23  24288979.689   127639467.378        2131.819          44.000  
G15  22462580.446   118041724.796       -1184.591          48.000  
G24  22315915.210   117270995.219         715.433          48.000  
J 1  40836516.333   214597335.820        -212.842          44.000  
J 3  39863228.313                3      -1045.450          26.000  
G10  27320458.401   143569969.809        2743.302          37.000  
G 5  25415036.393   133556933.170       -3853.112          42.000  
G20  23880452.875   125492626.365        2060.111          44.000  
J 2  38985161.683   204868480.714        -532.242          43.000  
G13  24164609.087   126985957.055       -2852.120          46.000  
G18  23806684.808   125105030.612       -1592.718          45.000  
J 7  39337967.601   206722424.305        -698.953          38.000  
> 2020 11  5  4 49 38.0070000  0 13                     
G28  26399233.939   138728940.262       -1786.501          40.000  
G23  24288574.013   127637335.710        2131.513          44.000  
G15  22462805.917   118042909.716       -1185.035          48.000  
G24  22315779.236   117270280.221         714.708          48.000  
J 1  40836556.947   214597548.769        -212.982          44.000  
J 3  39863429.736                3      -1045.972          26.000  
G10  27319936.260   143567226.279        2743.745          37.000  
G 5  25415769.635   133560786.505       -3853.730          42.000  
G20  23880060.882   125490566.401        2059.745          45.000  
J 2  38985262.961   204869013.054        -532.495          44.000  
G13  24165151.748   126988809.256       -2852.289          46.000  
G18  23806987.841   125106623.682       -1593.338          45.000  
J 7  39338100.508   206723123.399        -698.985          38.000  
> 2020 11  5  4 49 39.0070000  0 13                     
G28  26399574.019   138730726.815       -1786.610          40.000  
G23  24288168.434   127635204.287        2131.547          44.000  
G15  22463031.404   118044094.948       -1185.174          48.000  
G24  22315643.271   117269565.835         714.326          47.000  
J 1  40836597.441   214597761.662        -212.665          44.000  
J 3  39863629.841                3      -1046.170          26.000  
G10  27319414.161   143564482.746        2743.742          37.000  
G 5  25416502.879   133564640.066       -3853.204          42.000  
G20  23879668.865   125488506.768        2059.717          44.000  
J 2  38985364.263   204869545.504        -532.411          43.000  
G13  24165694.521   126991661.594       -2852.180          45.000  
G18  23807291.120   125108217.393       -1593.839          44.000  
J 7  39338233.571   206723822.526        -698.802          38.000  
> 2020 11  5  4 49 40.0070000  0 13                     
G28  26399914.075   138732513.897       -1787.723          40.000  
G23  24287762.866   127633073.082        2131.170          44.000  
G15  22463257.032   118045280.438       -1185.669          48.000  
G24  22315507.425   117268852.033         713.446          47.000  
J 1  40836638.005   214597974.453        -212.531          44.000  
J 3  39863830.753                3      -1046.477          26.000  
G10  27318891.975   143561739.162        2743.130          37.000  
G 5  25417236.230   133568493.865       -3853.844          42.000  
G20  23879277.044   125486447.424        2059.093          45.000  
J 2  38985465.562   204870078.010        -532.645          43.000  
G13  24166237.425   126994514.021       -2852.674          45.000  
G18  23807594.461   125109811.682       -1594.596          44.000  
J 7  39338366.574   206724521.631        -699.070          38.000  
> 2020 11  5  4 49 41.0070000  0 13                     
G28  26400254.274   138734301.370       -1787.385          39.000  
G23  24287357.358   127630942.033        2131.319          43.000  
G15  22463482.691   118046466.132       -1185.575          47.000  
G24  22315371.739   117268138.715         713.358          47.000  
J 1  40836678.427   214598187.131        -212.512          44.000  
J 3  39864030.239                2      -1046.400          27.000  
G10  27318369.891   143558995.453        2743.856          37.000  
G 5  25417969.642   133572347.834       -3853.739          41.000  
G20  23878885.236   125484388.308        2059.315          45.000  
J 2  38985566.952   204870610.523        -532.228          43.000  
G13  24166780.136   126997366.458       -2852.287          45.000  
G18  23807897.974   125111406.520       -1595.006          44.000  
J 7  39338499.635   206725220.637        -698.812          38.000  
> 2020 11  5  4 49 42.0070000  0 13                     
G28  26400594.517   138736089.357       -1788.262          40.000  
G23  24286951.897   127628811.210        2130.630          44.000  
G15  22463708.344   118047652.100       -1186.203          48.000  
G24  22315236.061   117267425.949         712.522          47.000  
J 1  40836718.906   214598399.714        -212.720          44.000  
J 3  39864229.232                2      -1046.438          27.000  
G10  27317847.743   143556251.710        2743.613          37.000  
G 5  25418703.098   133576202.007       -3854.310          42.000  
G20  23878493.514   125482329.504        2058.610          45.000  
J 2  38985668.365   204871143.111        -532.435          43.000  
G13  24167323.066   127000219.008       -2852.744          45.000  
G18  23808201.725   125113001.953       -1595.816          45.000  
J 7  39338632.681   206725919.644        -699.038          38.000  
> 2020 11  5  4 49 43.0070000  0 13                     
G28  26400934.832   138737877.841       -1788.859          40.000  
G23  24286546.398   127626680.584        2130.704          44.000  
G15  22463934.067   118048838.304       -1186.281          48.000  
G24  22315100.667   117266713.724         712.099          48.000  
J 1  40836759.324   214598612.193        -212.244          45.000  
J 3  39864430.522                1      -1046.449          27.000  
G10  27317325.433   143553507.889        2743.538          37.000  
G 5  25419436.621   133580056.384       -3854.452          42.000  
G20  23878101.797   125480270.976        2058.457          45.000  
J 2  38985769.723   204871675.757        -532.657          43.000  
G13  24167865.843   127003071.625       -2852.661          46.000  
G18  23808505.443   125114597.974       -1596.256          45.000  
J 7  39338765.648   206726618.605        -698.740          38.000  
> 2020 11  5  4 49 44.0070000  0 13                     
G28  26401275.273   138739666.906       -1789.542          40.000  
G23  24286141.026   127624550.267        2130.131          44.000  
G15  22464159.865   118050024.857       -1186.477          47.000  
G24  22314965.242   117266002.109         711.307          48.000  
J 1  40836799.692   214598824.668        -212.402          44.000  
J 3  39864630.598   209490030.703       -1046.595          27.000  
G10  27316803.232   143550764.100        2743.788          37.000  
G 5  25420170.151   133583911.060       -3854.493          42.000  
G20  23877710.083   125478212.811        2058.242          45.000  
J 2  38985871.115   204872208.540        -532.670          43.000  
G13  24168408.672   127005924.403       -2852.651          45.000  
G18  23808809.350   125116194.658       -1596.849          45.000  
J 7  39338898.735   206727317.635        -699.164          38.000  
> 2020 11  5  4 49 45.0070000  0 13                     
G28  26401615.882   138741456.524       -1790.238          40.000  
G23  24285735.728   127622420.225        2129.687          44.000  
G15  22464385.736   118051211.749       -1187.149          47.000  
G24  22314829.911   117265291.117         710.537          47.000  
J 1  40836840.143   214599037.128        -212.598          44.000  
J 3  39864829.720   209491077.076       -1046.472          27.000  
G10  27316281.109   143548020.334        2743.585          37.000  
G 5  25420903.801   133587766.034       -3855.046          42.000  
G20  23877318.579   125476155.030        2057.436          45.000  
J 2  38985972.506   204872741.451        -532.982          43.000  
G13  24168951.604   127008777.354       -2853.185          45.000  
G18  23809113.308   125117792.022       -1597.774          45.000  
J 7  39339031.792   206728016.692        -699.076          38.000  
> 2020 11  5  4 49 46.0070000  0 13                     
G28  26401956.618   138743246.856       -1790.448          40.000  
G23  24285330.553   127620290.626        2129.452          43.000  
G15  22464611.737   118052399.140       -1187.606          48.000  
G24  22314694.669   117264580.919         709.835          48.000  
J 1  40836880.655   214599249.751        -212.762          44.000  
J 3  39865029.434   209492123.576       -1046.293          27.000  
G10  27315759.049   143545276.740        2743.714          37.000  
G 5  25421637.500   133591621.437       -3855.521          42.000  
G20  23876927.077   125474097.764        2057.048          45.000  
J 2  38986074.015   204873274.675        -533.363          43.000  
G13  24169494.625   127011630.627       -2853.499          45.000  
G18  23809417.442   125119390.208       -1598.388          46.000  
J 7  39339164.822   206728715.974        -699.234          38.000  
> 2020 11  5  4 49 47.0070000  0 13                     
G28  26402297.357   138745037.676       -1791.139          40.000  
G23  24284925.328   127618161.212        2129.296          43.000  
G15  22464837.737   118053586.761       -1187.760          47.000  
G24  22314559.580   117263871.228         709.481          47.000  
J 1  40836921.039   214599462.237        -212.323          44.000  
J 3  39865229.047                       -1046.321          27.000  
G10  27315236.887   143542533.071        2743.772          37.000  
G 5  25422371.176   133595477.051       -3855.916          42.000  
G20  23876535.541   125472040.767        2056.861          44.000  
J 2  38986175.490   204873807.922        -533.120          43.000  
G13  24170037.623   127014483.955       -2853.415          45.000  
G18  23809721.719   125120988.970       -1599.049          45.000  
J 7  39339297.888   206729415.193        -699.005          38.000  
> 2020 11  5  4 49 48.0070000  0 13                     
G28  26402638.239   138746829.038       -1791.692          40.000  
G23  24284520.135   127616032.063        2129.104          44.000  
G15  22465063.828   118054774.700       -1188.172          48.000  
G24  22314424.707   117263162.138         708.664          48.000  
J 1  40836961.409   214599674.702        -212.592          45.000  
J 3  39865428.508   209494216.442       -1046.565          27.000  
G10  27314714.852   143539789.401        2743.170          38.000  
G 5  25423104.908   133599332.918       -3856.147          42.000  
G20  23876144.166   125469984.117        2056.352          45.000  
J 2  38986276.915   204874341.293        -533.512          44.000  
G13  24170580.611   127017337.411       -2853.651          46.000  
G18  23810026.157   125122588.369       -1599.918          45.000  
J 7  39339430.928   206730114.476        -699.401          38.000  
> 2020 11  5  4 49 49.0070000  0 13                     
G28  26402979.157   138748620.891       -1791.960          40.000  
G23  24284114.916   127613903.145        2128.908          44.000  
G15  22465289.899   118055962.896       -1188.133          48.000  
G24  22314289.886   117262453.609         708.411          48.000  
J 1  40837001.789   214599887.089        -212.311          45.000  
J 3  39865627.838   209495262.788       -1046.124          27.000  
G10  27314192.772   143537045.684        2743.633          38.000  
G 5  25423838.781   133603189.011       -3856.065          43.000  
G20  23875752.694   125467927.751        2056.418          45.000  
J 2  38986378.501   204874874.722        -533.183          44.000  
G13  24171123.627   127020190.972       -2853.433          46.000  
G18  23810330.521   125124188.358       -1600.003          45.000  
J 7  39339563.970   206730813.714        -699.123          39.000  
> 2020 11  5  4 49 50.0070000  0 13                     
G28  26403320.211   138750413.079       -1792.223          40.000  
G23  24283709.783   127611774.247        2129.005          44.000  
G15  22465515.942   118057151.182       -1188.229          47.000  
G24  22314155.065   117261745.467         708.029          47.000  
J 1  40837042.209   214600099.201        -211.780          44.000  
J 3  39865829.248                       -1046.291          28.000  
G10  27313670.760   143534301.730        2743.935          38.000  
G 5  25424572.594   133607045.152       -3856.290          42.000  
G20  23875361.563   125465871.508        2056.210          45.000  
J 2  38986480.066   204875408.037        -532.980          44.000  
G13  24171666.613   127023044.438       -2853.356          45.000  
G18  23810635.045   125125788.771       -1600.649          45.000  
J 7  39339696.964   206731512.745        -698.876          38.000  
> 2020 11  5  4 49 51.0070000  0 13                     
G28  26403661.315   138752205.497       -1792.515          40.000  
G23  24283304.719   127609645.328        2128.912          44.000  
G15  22465742.142   118058339.483       -1188.295          48.000  
G24  22314020.375   117261037.639         707.712          48.000  
J 1  40837082.574   214600310.982        -211.536          45.000  
J 3  39866029.959                       -1045.531          28.000  
G10  27313148.585   143531557.451        2744.875          38.000  
G 5  25425306.272   133610901.257       -3855.988          42.000  
G20  23874970.305   125463815.313        2056.208          45.000  
J 2  38986581.496   204875941.188        -533.053          44.000  
G13  24172209.581   127025897.741       -2853.248          46.000  
G18  23810939.560   125127389.526       -1600.821          45.000  
J 7  39339829.830   206732211.520        -698.893          39.000  
> 2020 11  5  4 49 52.0070000  0 13                     
G28  26404002.476   138753998.179       -1792.806          40.000  
G23  24282899.606   127607516.386        2128.877          44.000  
G15  22465968.177   118059527.803       -1188.382          47.000  
G24  22313885.691   117260330.140         707.203          47.000  
J 1  40837122.747   214600522.457        -211.505          43.000  
J 3  39866231.123                       -1045.634          27.000  
G10  27312626.418   143528812.939        2744.285          38.000  
G 5  25426040.014   133614757.356       -3856.030          42.000  
G20  23874579.101   125461759.173        2055.993          45.000  
J 2  38986682.839   204876474.162        -533.057          44.000  
G13  24172752.643   127028750.931       -2853.470          45.000  
G18  23811244.264   125128990.651       -1601.578          45.000  
J 7  39339962.852   206732910.026        -698.478          38.000  
> 2020 11  5  4 49 53.0070000  0 13                     
G28  26404343.611   138755790.998       -1792.753          40.000  
G23  24282494.449   127605387.295        2129.160          44.000  
G15  22466194.373   118060716.039       -1188.300          48.000  
G24  22313751.064   117259622.808         707.072          47.000  
J 1  40837162.982   214600733.466        -210.938          45.000  
J 3  39866430.721                       -1044.850          27.000  
G10  27312104.002   143526067.977        2745.072          38.000  
G 5  25426773.692   133618613.315       -3855.821          42.000  
G20  23874187.818   125459702.961        2056.185          45.000  
J 2  38986784.137   204877006.838        -532.685          44.000  
G13  24173295.379   127031603.826       -2852.865          46.000  
G18  23811548.997   125130591.992       -1601.505          45.000  
J 7  39340095.706   206733608.160        -698.221          38.000  
> 2020 11  5  4 49 54.0070000  0 13                     
G28  26404684.887   138757584.350       -1793.698          40.000  
G23  24282089.423   127603258.445        2128.510          43.000  
G15  22466420.511   118061904.548       -1188.710          47.000  
G24  22313616.528   117258916.020         706.549          47.000  
J 1  40837203.057   214600944.419        -210.907          44.000  
J 3  39866630.018                       -1045.281          27.000  
G10  27311581.669   143523322.980        2745.204          38.000  
G 5  25427507.496   133622469.480       -3855.851          42.000  
G20  23873796.617   125457647.075        2055.580          45.000  
J 2  38986885.528   204877539.601        -532.864          43.000  
G13  24173838.325   127034456.855       -2853.284          45.000  
G18  23811853.747   125132193.962       -1602.387          44.000  
J 7  39340228.532   206734306.257        -697.963          38.000  
> 2020 11  5  4 49 55.0070000  0 13                     
G28  26405026.260   138759377.956       -1793.672          40.000  
G23  24281684.322   127601129.589        2128.870          44.000  
G15  22466646.646   118063093.101       -1188.531          47.000  
G24  22313482.118   117258209.587         706.150          47.000  
J 1  40837243.078   214601155.066        -210.498          44.000  
J 3  39866829.172                       -1044.115          27.000  
G10  27311059.329   143520577.713        2745.861          38.000  
G 5  25428241.225   133626325.686       -3855.969          42.000  
G20  23873405.406   125455591.242        2055.766          45.000  
J 2  38986986.900   204878072.207        -532.497          44.000  
G13  24174381.156   127037309.719       -2852.793          45.000  
G18  23812158.592   125133796.304       -1602.691          44.000  
J 7  39340361.325   206735004.148        -697.739          38.000  
> 2020 11  5  4 49 56.0070000  0 13                     
G28  26405367.642   138761172.037       -1794.194          39.000  
G23  24281279.326   127599000.928        2128.610          44.000  
G15  22466872.885   118064281.897       -1188.930          47.000  
G24  22313347.725   117257503.668         705.711          47.000  
J 1  40837283.095   214601365.608        -210.468          44.000  
J 3  39867026.261                       -1044.491          27.000  
G10  27310536.943   143517832.398        2745.281          38.000  
G 5  25428975.072   133630182.069       -3856.422          42.000  
G20  23873014.118   125453535.690        2055.371          45.000  
J 2  38987088.285   204878604.855        -532.668          44.000  
G13  24174924.064   127040162.670       -2853.004          45.000  
G18  23812463.624   125135399.212       -1603.273          45.000  
J 7  39340494.048   206735701.988        -697.798          38.000  
> 2020 11  5  4 49 57.0070000  0 13                     
G28  26405709.121   138762966.336       -1794.287          39.000  
G23  24280874.248   127596872.192        2128.696          44.000  
G15  22467099.074   118065470.669       -1188.811          47.000  
G24  22313213.444   117256798.033         705.426          47.000  
J 1  40837323.152   214601575.774        -210.150          44.000  
J 3  39867224.088                       -1044.485          27.000  
G10  27310014.511   143515086.711        2745.874          38.000  
G 5  25429708.899   133634038.391       -3856.348          42.000  
G20  23872622.888   125451480.130        2055.555          44.000  
J 2  38987189.560   204879137.274        -532.337          43.000  
G13  24175466.908   127043015.408       -2852.778          45.000  
G18  23812768.686   125137002.418       -1603.484          45.000  
J 7  39340626.770   206736399.482        -697.150          38.000  
> 2020 11  5  4 49 58.0070000  0 13                     
G28  26406050.514   138764760.952       -1794.929          40.000  
G23  24280469.159   127594743.484        2128.633          43.000  
G15  22467325.281   118066659.517       -1188.914          47.000  
G24  22313079.249   117256092.768         705.056          47.000  
J 1  40837363.066   214601785.671        -209.985          44.000  
J 3  39867421.208                       -1044.154          26.000  
G10  27309491.973   143512340.806        2746.094          38.000  
G 5  25430442.740   133637894.741       -3856.698          42.000  
G20  23872231.782   125449424.699        2055.291          44.000  
J 2  38987290.950   204879669.589        -532.381          43.000  
G13  24176009.725   127045868.070       -2852.807          45.000  
G18  23813073.899   125138606.053       -1603.978          44.000  
J 7  39340759.523   206737096.831        -697.166          38.000  
> 2020 11  5  4 49 59.0070000  0 13                     
G28  26406392.062   138766555.956       -1795.284          39.000  
G23  24280064.127   127592614.909        2128.417          43.000  
G15  22467551.525   118067848.549       -1189.268          46.000  
G24  22312945.126   117255387.966         704.372          46.000  
J 1  40837402.997   214601995.396        -209.906          43.000  
J 3  39867617.687                       -1044.235          26.000  
G10  27308969.439   143509594.768        2745.823          38.000  
G 5  25431176.633   133641751.196       -3856.531          42.000  
G20  23871840.585   125447369.474        2054.925          44.000  
J 2  38987392.273   204880201.872        -532.497          43.000  
G13  24176552.614   127048720.716       -2852.786          45.000  
G18  23813379.220   125140210.179       -1604.558          44.000  
J 7  39340892.148   206737794.055        -697.511          37.000  
> 2020 11  5  4 50  0.0070000  0 13                     
G28  26406733.659   138768351.470       -1796.035          40.000  
G23  24279659.106   127590486.558        2128.172          43.000  
G15  22467777.834   118069037.837       -1189.503          48.000  
G24  22312811.145   117254683.726         703.887          47.000  
J 1  40837442.902   214602205.037        -209.741          44.000  
J 3  39867815.815                       -1043.662          26.000  
G10  27308446.888   143506848.676        2745.721          38.000  
G 5  25431910.653   133645607.918       -3856.997          42.000  
G20  23871449.558   125445314.535        2054.783          45.000  
J 2  38987493.536   204880734.226        -532.458          44.000  
G13  24177095.479   127051573.458       -2852.896          46.000  
G18  23813684.625   125141814.917       -1605.173          45.000  
J 7  39341024.853   206738491.233        -697.160          38.000  
> 2020 11  5  4 50  1.0070000  0 13                     
G28  26407075.430   138770147.288       -1795.712          40.000  
G23  24279254.125   127588358.235        2128.413          44.000  
G15  22468004.172   118070227.221       -1189.243          48.000  
G24  22312677.201   117253979.834         703.934          47.000  
J 1  40837482.864   214602414.413        -209.204          44.000  
J 3  39868014.215                       -1044.118          26.000  
G10  27307924.218   143504102.319        2746.927          39.000  
G 5  25432644.541   133649464.659       -3856.660          43.000  
G20  23871058.592   125443259.711        2054.890          45.000  
J 2  38987594.790   204881266.457        -531.958          44.000  
G13  24177638.224   127054426.098       -2852.542          46.000  
G18  23813990.044   125143420.056       -1605.204          45.000  
J 7  39341157.528   206739188.227        -696.894          38.000  
> 2020 11  5  4 50  2.0070000  0 14                     
G28  26407417.318   138771943.398       -1796.361          41.000  
G23  24278849.014   127586229.932        2128.285          44.000  
G15  22468230.470   118071416.651       -1189.420          48.000  
G24  22312543.308   117253276.297         703.375          47.000  
J 1  40837522.706   214602623.497        -209.113          44.000  
J 3  39868209.395                       -1043.244          26.000  
G10  27307401.601   143501355.733        2746.696          39.000  
G 5  25433378.661   133653321.395       -3856.901          43.000  
G20  23870667.510   125441204.993        2054.517          45.000  
J 2  38987696.060   204881798.566        -532.024          44.000  
G13  24178181.123   127057278.616       -2852.449          46.000  
G18  23814295.564   125145025.595       -1605.866          45.000  
J 7  39341290.163   206739884.977        -696.693          39.000  
G12                                                                
> 2020 11  5  4 50  3.0070000  0 14                     
G28  26407759.193   138773739.918       -1796.567          40.000  
G23  24278444.108   127584101.753        2128.189          44.000  
G15  22468456.897   118072606.267       -1189.609          48.000  
G24  22312409.569   117252573.235         702.821          47.000  
J 1  40837562.403   214602832.406        -208.679          44.000  
J 3  39868406.397                       -1043.131          25.000  
G10  27306878.936   143498609.031        2746.584          38.000  
G 5  25434112.557   133657178.265       -3856.786          42.000  
G20  23870276.553   125439150.464        2054.586          45.000  
J 2  38987797.293   204882330.640        -532.079          44.000  
G13  24178723.970   127060131.156       -2852.673          46.000  
G18  23814601.238   125146631.634       -1606.363          45.000  
J 7  39341422.718   206740581.641        -696.705          38.000  
G12                                                                
> 2020 11  5  4 50  4.0070000  0 14                     
G28  26408101.046   138775536.659       -1796.440          40.000  
G23  24278039.195   127581973.504        2128.510          44.000  
G15  22468683.182   118073795.867       -1189.368          48.000  
G24  22312275.895   117251870.440         702.806          47.000  
J 1  40837602.005   214603040.958        -208.276          44.000  
J 3  39868601.965                       -1042.561          26.000  
G10  27306356.237   143495861.957        2747.665          38.000  
G 5  25434846.418   133661035.113       -3856.465          43.000  
G20  23869885.517   125437095.968        2054.594          45.000  
J 2  38987898.471   204882862.501        -531.590          44.000  
G13  24179266.755   127062983.467       -2852.081          46.000  
G18  23814906.983   125148237.975       -1606.250          45.000  
J 7  39341555.399   206741277.978        -695.886          38.000  
G12                                                                
> 2020 11  5  4 50  5.0070000  0 14                     
G28  26408442.957   138777333.614       -1796.818          40.000  
G23  24277634.229   127579845.186        2128.531          44.000  
G15  22468909.523   118074985.435       -1189.419          48.000  
G24  22312142.106   117251167.910         702.534          48.000  
J 1  40837641.598   214603249.133        -207.983          44.000  
J 3  39868800.154                       -1042.080          26.000  
G10  27305833.382   143493114.547        2747.767          38.000  
G 5  25435580.220   133664891.866       -3856.572          43.000  
G20  23869494.557   125435041.475        2054.525          45.000  
J 2  38987999.648   204883394.136        -531.488          44.000  
G13  24179809.568   127065835.602       -2851.974          46.000  
G18  23815212.687   125149844.640       -1606.824          45.000  
J 7  39341687.870   206741974.025        -695.837          38.000  
G12                                                                
> 2020 11  5  4 50  6.0070000  0 14                     
G28  26408784.995   138779130.984       -1797.529          40.000  
G23  24277229.269   127577717.020        2128.107          43.000  
G15  22469135.928   118076175.199       -1189.850          47.000  
G24  22312008.513   117250465.891         701.770          47.000  
J 1  40837681.136   214603457.146        -207.947          44.000  
J 3  39869000.168                       -1042.287          26.000  
G10  27305310.608   143490367.021        2747.693          38.000  
G 5  25436314.073   133668748.777       -3856.846          42.000  
G20  23869103.608   125432987.209        2054.088          45.000  
J 2  38988100.747   204883925.759        -531.630          44.000  
G13  24180352.301   127068687.749       -2852.123          45.000  
G18  23815518.542   125151451.818       -1607.584          45.000  
J 7  39341820.400   206742669.968        -696.033          38.000  
G12                                                                
> 2020 11  5  4 50  7.0070000  0 14                     
G28  26409127.139   138780928.843       -1798.141          40.000  
G23  24276824.341   127575589.056        2127.893          43.000  
G15  22469362.403   118077365.210       -1190.151          48.000  
G24  22311875.102   117249764.411         701.263          47.000  
J 1  40837720.687   214603665.073        -207.916          45.000  
J 3  39869198.061                       -1041.388          26.000  
G10  27304787.763   143487619.437        2747.893          38.000  
G 5  25437048.073   133672605.903       -3857.333          42.000  
G20  23868712.767   125430933.231        2053.755          45.000  
J 2  38988201.922   204884457.443        -531.697          43.000  
G13  24180895.067   127071539.965       -2852.172          46.000  
G18  23815824.479   125153059.570       -1607.801          45.000  
J 7  39341952.929   206743365.867        -695.770          38.000  
G12                                                                
> 2020 11  5  4 50  8.0070000  0 14                     
G28  26409469.312   138782727.075       -1798.221          40.000  
G23  24276419.436   127573461.186        2127.892          43.000  
G15  22469588.862   118078555.354       -1189.992          47.000  
G24  22311741.708   117249063.355         700.865          48.000  
J 1  40837760.215   214603872.788        -207.465          44.000  
J 3  39869398.011                       -1042.102          26.000  
G10  27304264.818   143484871.679        2748.274          38.000  
G 5  25437782.059   133676463.120       -3857.214          42.000  
G20  23868321.988   125428879.417        2053.940          45.000  
J 2  38988303.038   204884989.076        -531.461          43.000  
G13  24181437.839   127074392.154       -2852.025          46.000  
G18  23816130.592   125154667.812       -1608.255          45.000  
J 7  39342085.382   206744061.667        -695.709          38.000  
G12                                                                
> 2020 11  5  4 50  9.0070000  0 14                     
G28  26409811.591   138784525.682       -1798.680          40.000  
G23  24276014.590   127571333.434        2127.632          44.000  
G15  22469815.308   118079745.667       -1190.512          47.000  
G24  22311608.347   117248362.725         700.315          47.000  
J 1  40837799.746   214604080.322        -207.520          44.000  
J 3  39869596.837                       -1041.659          26.000  
G10  27303741.850   143482123.768        2747.984          38.000  
G 5  25438516.078   133680320.432       -3857.448          42.000  
G20  23867931.293   125426825.799        2053.482          45.000  
J 2  38988404.137   204885520.653        -531.468          44.000  
G13  24181980.562   127077244.328       -2852.264          46.000  
G18  23816436.709   125156276.533       -1608.922          45.000  
J 7  39342217.736   206744757.270        -695.287          38.000  
G12                                                                
> 2020 11  5  4 50 10.0070000  0 14                     
G28  26410153.846   138786324.571       -1799.127          40.000  
G23  24275609.696   127569205.649        2128.090          44.000  
G15  22470041.927   118080936.002       -1190.033          48.000  
G24  22311475.098   117247662.417         700.449          47.000  
J 1  40837839.117   214604287.530        -206.909          44.000  
J 3  39869796.449                       -1041.719          26.000  
G10  27303218.861   143479375.596        2748.310          38.000  
G 5  25439250.214   133684177.731       -3857.051          42.000  
G20  23867540.586   125424772.239        2053.706          45.000  
J 2  38988505.279   204886052.072        -531.027          44.000  
G13  24182523.242   127080096.352       -2851.678          46.000  
G18  23816742.859   125157885.623       -1609.112          45.000  
J 7  39342350.034   206745452.656        -694.899          38.000  
G12                                                                
> 2020 11  5  4 50 11.0070000  0 14                     
G28  26410496.196   138788123.635       -1799.387          40.000  
G23  24275204.842   127567077.795        2127.781          44.000  
G15  22470268.414   118082126.294       -1190.308          47.000  
G24  22311341.917   117246962.360         699.902          47.000  
J 1  40837878.491   214604494.347        -206.677          44.000  
J 3  39869993.741                       -1041.454          26.000  
G10  27302695.916   143476627.000        2748.903          38.000  
G 5  25439984.252   133688034.925       -3857.034          42.000  
G20  23867149.802   125422718.672        2053.423          45.000  
J 2  38988606.366   204886583.248        -531.083          44.000  
G13  24183065.944   127082948.161       -2851.893          46.000  
G18  23817049.106   125159494.994       -1609.624          45.000  
J 7  39342482.305   206746147.692        -694.676          38.000  
G12                                                                
> 2020 11  5  4 50 12.0070000  0 14                     
G28  26410838.639   138789923.205       -1799.767          40.000  
G23  24274799.939   127564950.154        2127.769          44.000  
G15  22470495.012   118083316.871       -1190.471          48.000  
G24  22311208.755   117246262.873         699.383          47.000  
J 1  40837917.811   214604701.102        -206.775          44.000  
J 3  39870190.551                       -1041.235          26.000  
G10  27302172.852   143473878.410        2748.925          38.000  
G 5  25440718.357   133691892.378       -3857.360          43.000  
G20  23866759.061   125420665.405        2053.256          45.000  
J 2  38988707.453   204887114.505        -531.065          44.000  
G13  24183608.642   127085800.066       -2852.040          46.000  
G18  23817355.559   125161104.966       -1610.112          45.000  
J 7  39342614.526   206746842.763        -694.840          38.000  
G12                                                                
> 2020 11  5  4 50 13.0070000  0 14                     
G28  26411181.111   138791723.266       -1800.528          41.000  
G23  24274395.092   127562822.743        2126.982          44.000  
G15  22470721.567   118084507.702       -1191.107          48.000  
G24  22311075.858   117245563.943         698.468          47.000  
J 1  40837957.209   214604907.740        -206.775          44.000  
J 3  39870389.578                       -1041.132          26.000  
G10  27301649.792   143471129.765        2748.443          38.000  
G 5  25441452.456   133695750.026       -3857.895          43.000  
G20  23866368.357   125418612.430        2052.574          45.000  
J 2  38988808.576   204887645.820        -531.387          44.000  
G13  24184151.259   127088652.032       -2852.108          46.000  
G18  23817661.886   125162715.523       -1610.925          45.000  
J 7  39342746.764   206747537.789        -695.342          38.000  
G12                                                                
> 2020 11  5  4 50 14.0070000  0 14                     
G28  26411523.813   138793523.792       -1801.102          40.000  
G23  24273990.233   127560695.488        2127.050          44.000  
G15  22470948.240   118085698.740       -1191.152          48.000  
G24  22310942.952   117244865.539         698.049          48.000  
J 1  40837996.478   214605114.268        -206.488          44.000  
J 3  39870585.390                       -1041.078          26.000  
G10  27301126.747   143468381.002        2748.865          38.000  
G 5  25442186.596   133699607.834       -3857.914          42.000  
G20  23865977.712   125416559.710        2052.446          45.000  
J 2  38988909.615   204888177.153        -531.312          44.000  
G13  24184693.901   127091504.055       -2851.992          46.000  
G18  23817968.610   125164326.639       -1611.485          45.000  
J 7  39342878.982   206748232.727        -695.032          38.000  
G12                                                                
> 2020 11  5  4 50 15.0070000  0 14                     
G28  26411866.444   138795324.417       -1801.013          40.000  
G23  24273585.321   127558568.068        2127.372          44.000  
G15  22471174.944   118086889.679       -1191.171          48.000  
G24  22310810.073   117244167.280         697.948          48.000  
J 1  40838035.655   214605320.333        -206.061          44.000  
J 3  39870782.871                       -1040.312          26.000  
G10  27300603.569   143465631.833        2749.097          38.000  
G 5  25442920.684   133703465.507       -3857.763          42.000  
G20  23865587.045   125414506.896        2052.686          45.000  
J 2  38989010.672   204888708.176        -531.162          44.000  
G13  24185236.603   127094355.789       -2851.828          46.000  
G18  23818275.228   125165937.954       -1611.517          45.000  
J 7  39343011.041   206748927.268        -694.757          38.000  
G12                                                                
> 2020 11  5  4 50 16.0070000  0 14                     
G28  26412209.287   138797125.709       -1801.613          40.000  
G23  24273180.590   127556441.050        2126.804          43.000  
G15  22471401.657   118088081.043       -1191.667          47.000  
G24  22310677.352   117243469.743         697.184          47.000  
G12  27138444.622                3       2766.000          27.000  
J 1  40838074.968   214605526.470        -206.244          44.000  
J 3  39870979.076                       -1040.231          26.000  
G10  27300080.519   143462882.746        2748.952          38.000  
G 5  25443654.777   133707323.555       -3858.272          42.000  
G20  23865196.538   125412454.562        2052.032          45.000  
J 2  38989111.799   204889239.441        -531.621          43.000  
G13  24185779.298   127097207.780       -2852.260          46.000  
G18  23818581.989   125167550.045       -1612.612          44.000  
J 7  39343143.287   206749621.968        -695.013          38.000  
> 2020 11  5  4 50 17.0070000  0 14                     
G28  26412552.117   138798927.295       -1801.919          40.000  
G23  24272775.790   127554314.033        2126.907          44.000  
G15  22471628.388   118089272.448       -1191.393          48.000  
G24  22310544.749   117242772.567         696.958          47.000  
J 1  40838114.135   214605732.313        -205.817          44.000  
J 3  39871175.435                       -1039.908          26.000  
G10  27299557.417   143460133.423        2749.459          38.000  
G 5  25444389.056   133711181.600       -3857.955          43.000  
G20  23864806.022   125410402.296        2052.281          45.000  
J 2  38989212.925   204889770.528        -530.897          44.000  
G13  24186322.082   127100059.634       -2851.739          46.000  
G18  23818888.847   125169162.503       -1612.711          45.000  
J 7  39343275.360   206750316.412        -694.207          38.000  
G12                                                                
> 2020 11  5  4 50 18.0070000  0 14                     
G28  26412894.976   138800729.293       -1802.301          40.000  
G23  24272371.024   127552187.126        2127.009          44.000  
G15  22471855.239   118090464.022       -1191.509          47.000  
G24  22310412.182   117242075.865         696.490          47.000  
G12  27137410.623                3       2768.446          26.000  
J 1  40838153.272   214605937.974        -205.395          43.000  
J 3  39871372.667                       -1040.200          26.000  
G10  27299034.320   143457383.944        2749.787          38.000  
G 5  25445123.273   133715039.761       -3858.161          42.000  
G20  23864415.433   125408350.234        2052.191          45.000  
J 2  38989314.040   204890301.615        -531.024          43.000  
G13  24186864.698   127102911.495       -2851.845          45.000  
G18  23819195.774   125170775.464       -1613.012          44.000  
J 7  39343407.522   206751010.753        -694.488          38.000  
> 2020 11  5  4 50 19.0070000  0 14                     
G28  26413238.054   138802531.829       -1803.107          40.000  
G23  24271966.400   127550060.512        2126.274          43.000  
G15  22472082.072   118091655.933       -1192.270          47.000  
G24  22310279.709   117241379.773         695.614          47.000  
J 1  40838192.521   214606143.621        -205.908          43.000  
J 3  39871568.949                       -1040.227          25.000  
G10  27298511.196   143454634.481        2749.515          38.000  
G 5  25445857.494   133718898.217       -3858.905          42.000  
G20  23864025.026   125406298.547        2051.359          44.000  
J 2  38989415.096   204890832.821        -531.511          43.000  
G13  24187407.406   127105763.499       -2852.379          45.000  
G18  23819502.860   125172389.083       -1614.145          44.000  
J 7  39343539.672   206751705.136        -694.639          38.000  
G12                                                                
> 2020 11  5  4 50 20.0070000  0 14                     
G28  26413581.171   138804335.035       -1803.722          39.000  
G23  24271561.791   127547934.259        2126.238          43.000  
G15  22472309.014   118092848.243       -1192.564          47.000  
G24  22310147.299   117240684.385         694.940          47.000  
G12  27136363.103                3       2767.363          25.000  
J 1  40838231.617   214606349.340        -205.951          43.000  
J 3  39871765.835                       -1040.173          25.000  
G10  27297988.051   143451885.151        2748.807          38.000  
G 5  25446591.795   133722757.037       -3858.875          42.000  
G20  23863634.655   125404247.295        2050.972          44.000  
J 2  38989516.164   204891364.251        -531.623          43.000  
G13  24187950.194   127108615.748       -2852.468          45.000  
G18  23819810.074   125174003.457       -1614.693          44.000  
J 7  39343671.824   206752399.641        -694.425          38.000  
> 2020 11  5  4 50 21.0070000  0 14                     
G28  26413924.491   138806138.821       -1804.258          39.000  
G23  24271157.156   127545808.326        2125.885          43.000  
G15  22472535.899   118094040.923       -1193.041          47.000  
G24  22310015.139   117239989.654         694.264          47.000  
G12  27135837.296                3       2767.346          26.000  
J 1  40838270.787   214606555.060        -205.951          43.000  
J 3  39871964.066                       -1040.408          25.000  
G10  27297464.949   143449135.815        2749.339          37.000  
G 5  25447326.294   133726616.194       -3859.544          42.000  
G20  23863244.342   125402196.437        2050.583          44.000  
J 2  38989617.385   204891895.835        -531.816          43.000  
G13  24188492.987   127111468.182       -2852.777          45.000  
G18  23820117.357   125175618.510       -1615.461          44.000  
J 7  39343804.070   206753094.262        -695.214          38.000  
> 2020 11  5  4 50 22.0070000  0 14                     
G28  26414267.851   138807943.234       -1804.740          39.000  
G23  24270752.730   127543682.755        2125.375          43.000  
G15  22472762.952   118095233.990       -1193.330          47.000  
G24  22309883.133   117239295.630         693.666          47.000  
G12  27135304.513                3       2768.023          26.000  
J 1  40838309.890   214606760.826        -205.713          43.000  
J 3  39872163.155                       -1041.196          25.000  
G10  27296941.805   143446386.598        2749.156          38.000  
G 5  25448060.693   133730475.681       -3859.659          42.000  
G20  23862854.128   125400146.017        2050.105          44.000  
J 2  38989718.574   204892427.622        -532.088          43.000  
G13  24189035.875   127114320.838       -2852.809          45.000  
G18  23820424.848   125177234.300       -1616.285          44.000  
J 7  39343936.229   206753788.933        -694.765          38.000  
> 2020 11  5  4 50 23.0070000  0 14                     
G28  26414611.432   138809748.449       -1805.291          40.000  
G23  24270348.318   127541557.703        2124.866          43.000  
G15  22472990.072   118096427.626       -1193.672          47.000  
G24  22309751.308   117238602.460         692.866          47.000  
G12  27134777.724                3       2769.269          26.000  
J 1  40838349.096   214606966.827        -205.890          44.000  
J 3  39872361.065                       -1040.456          25.000  
G10  27296418.647   143443637.628        2749.114          38.000  
G 5  25448795.199   133734335.694       -3860.248          42.000  
G20  23862464.052   125398096.196        2049.737          44.000  
J 2  38989819.917   204892959.770        -532.151          43.000  
G13  24189578.735   127117173.889       -2853.046          45.000  
G18  23820732.447   125178850.973       -1616.820          44.000  
J 7  39344068.486   206754483.928        -694.987          38.000  
> 2020 11  5  4 50 24.0070000  0 14                     
G28  26414955.105   138811554.272       -1805.939          40.000  
G23  24269944.014   127539432.958        2124.735          43.000  
G15  22473217.266   118097621.632       -1194.189          47.000  
G24  22309619.467   117237909.913         692.218          47.000  
G12  27134248.866                2       2766.897          26.000  
J 1  40838388.283   214607172.832        -206.036          44.000  
J 3  39872558.434                       -1040.367          25.000  
G10  27295895.561   143440888.708        2748.890          38.000  
G 5  25449529.859   133738196.012       -3860.247          42.000  
G20  23862074.086   125396046.764        2049.331          44.000  
J 2  38989921.266   204893492.095        -532.291          43.000  
G13  24190121.678   127120027.132       -2853.311          45.000  
G18  23821040.270   125180468.350       -1617.708          44.000  
J 7  39344200.736   206755178.970        -694.924          38.000  
> 2020 11  5  4 50 25.0070000  0 14                     
G28  26415298.828   138813360.707       -1807.229          40.000  
G23  24269539.816   127537308.572        2123.858          43.000  
G15  22473444.565   118098816.018       -1194.893          47.000  
G24  22309487.841   117237218.043         691.335          47.000  
G12  27133722.653                2       2767.679          27.000  
J 1  40838427.454   214607378.879        -206.372          43.000  
J 3  39872754.909                       -1041.202          25.000  
G10  27295372.443   143438139.851        2748.771          38.000  
G 5  25450264.456   133742056.682       -3860.921          42.000  
G20  23861684.267   125393997.756        2048.458          44.000  
J 2  38990022.576   204894024.610        -532.937          43.000  
G13  24190664.735   127122880.575       -2853.675          45.000  
G18  23821348.198   125182086.457       -1618.852          44.000  
J 7  39344332.972   206755874.133        -695.260          38.000  
> 2020 11  5  4 50 26.0070000  0 14                     
G28  26415642.659   138815167.810       -1807.848          40.000  
G23  24269135.676   127535184.549        2123.864          44.000  
G15  22473671.934   118100010.816       -1194.991          47.000  
G24  22309356.279   117236526.898         690.835          47.000  
G12  27133202.440   142585904.6742       2767.947          27.000  
J 1  40838466.621   214607584.998        -206.152          45.000  
J 3  39872952.549                       -1040.937          25.000  
G10  27294849.306   143435391.101        2748.862          39.000  
G 5  25450999.172   133745917.733       -3861.414          42.000  
G20  23861294.508   125391949.194        2048.329          45.000  
J 2  38990123.958   204894557.348        -533.009          44.000  
G13  24191207.800   127125734.270       -2853.758          46.000  
G18  23821656.380   125183705.293       -1619.221          45.000  
J 7  39344465.286   206756569.439        -695.236          38.000  
> 2020 11  5  4 50 27.0070000  0 14                     
G28  26415986.604   138816975.399       -1807.722          40.000  
G23  24268731.599   127533060.780        2123.533          44.000  
G15  22473899.320   118101205.928       -1195.396          48.000  
G24  22309224.815   117235836.345         690.125          47.000  
G12  27132677.391                2       2768.039          28.000  
J 1  40838505.852   214607791.075        -206.201          44.000  
J 3  39873148.945                       -1040.667          26.000  
G10  27294326.219   143432642.357        2748.566          39.000  
G 5  25451733.990   133749779.019       -3861.564          42.000  
G20  23860904.736   125389900.966        2047.899          45.000  
J 2  38990225.343   204895090.176        -533.072          44.000  
G13  24191750.822   127128588.096       -2853.982          46.000  
G18  23821964.551   125185324.758       -1619.871          45.000  
J 7  39344597.592   206757264.748        -695.350          38.000  
> 2020 11  5  4 50 28.0070000  0 14                     
G28  26416330.747   138818783.599       -1808.602          40.000  
G23  24268327.533   127530937.307        2123.118          44.000  
G15  22474126.790   118102401.367       -1195.762          48.000  
G24  22309093.604   117235146.420         689.429          47.000  
G12  27132152.070                2       2768.217          29.000  
J 1  40838544.962   214607997.130        -206.146          44.000  
J 3  39873344.683                       -1040.865          26.000  
G10  27293803.102   143429893.613        2748.809          39.000  
G 5  25452468.739   133753640.595       -3861.694          42.000  
G20  23860515.055   125387853.111        2047.407          45.000  
J 2  38990326.775   204895623.144        -533.221          44.000  
G13  24192293.879   127131442.077       -2854.271          46.000  
G18  23822272.835   125186944.888       -1620.452          45.000  
J 7  39344729.883   206757960.123        -695.688          38.000  
> 2020 11  5  4 50 29.0070000  0 14                     
G28  26416674.930   138820592.402       -1809.091          40.000  
G23  24267923.445   127528814.160        2123.085          44.000  
G15  22474354.326   118103597.189       -1195.935          47.000  
G24  22308962.462   117234457.141         688.937          47.000  
G12  27131627.274                2       2768.483          29.000  
J 1  40838584.069   214608203.224        -206.140          44.000  
J 3  39873541.376                       -1040.904          26.000  
G10  27293280.087   143427144.951        2748.801          39.000  
G 5  25453203.689   133757502.520       -3862.254          42.000  
G20  23860125.399   125385805.668        2047.290          45.000  
J 2  38990428.255   204896156.292        -533.033          44.000  
G13  24192836.944   127134296.257       -2854.247          46.000  
G18  23822581.276   125188565.743       -1621.204          45.000  
J 7  39344862.153   206758655.575        -695.455          38.000  
> 2020 11  5  4 50 30.0070000  0 14                     
G28  26417019.260   138822401.738       -1809.478          40.000  
G23  24267519.435   127526691.277        2122.895          43.000  
G15  22474582.073   118104793.313       -1196.039          47.000  
G24  22308831.367   117233768.448         688.678          47.000  
G12  27131099.604                2       2768.344          28.000  
J 1  40838623.326   214608409.255        -205.798          44.000  
J 3  39873742.364                       -1040.380          26.000  
G10  27292757.049   143424396.279        2748.557          39.000  
G 5  25453938.548   133761364.677       -3862.135          42.000  
G20  23859735.875   125383758.551        2047.276          45.000  
J 2  38990529.749   204896689.551        -533.085          43.000  
G13  24193380.053   127137150.553       -2854.212          45.000  
G18  23822889.792   125190187.193       -1621.380          44.000  
J 7  39344994.481   206759351.012        -694.869          38.000  
> 2020 11  5  4 50 31.0070000  0 14                     
G28  26417363.666   138824211.422       -1809.891          40.000  
G23  24267115.521   127524568.474        2122.545          43.000  
G15  22474809.729   118105989.570       -1196.571          47.000  
G24  22308700.309   117233080.165         687.747          47.000  
G12  27130574.433                1       2768.482          28.000  
J 1  40838662.576   214608615.082        -205.975          44.000  
J 3  39873939.824                       -1040.397          26.000  
G10  27292233.901   143421647.408        2748.552          39.000  
G 5  25454673.588   133765226.933       -3862.680          42.000  
G20  23859346.322   125381711.610        2046.816          45.000  
J 2  38990631.252   204897222.745        -533.541          43.000  
G13  24193923.238   127140004.809       -2854.509          45.000  
G18  23823198.433   125191809.140       -1622.425          44.000  
J 7  39345126.859   206760046.343        -695.311          38.000  
> 2020 11  5  4 50 32.0070000  0 14                     
G28  26417708.164   138826021.703       -1810.275          40.000  
G23  24266711.636   127522446.011        2122.347          43.000  
G15  22475037.465   118107186.187       -1196.890          47.000  
G24  22308569.387   117232392.530         687.366          47.000  
G12  27130048.476                        2768.643          27.000  
J 1  40838701.725   214608820.919        -205.743          44.000  
J 3  39874138.373                       -1040.512          26.000  
G10  27291710.961   143418898.596        2748.559          38.000  
G 5  25455408.584   133769089.507       -3862.738          42.000  
G20  23858956.880   125379665.078        2046.296          45.000  
J 2  38990732.767   204897756.100        -533.389          43.000  
G13  24194466.494   127142859.261       -2854.662          45.000  
G18  23823507.189   125193431.763       -1622.888          44.000  
J 7  39345259.147   206760741.775        -695.843          38.000  
> 2020 11  5  4 50 33.0070000  0 14                     
G28  26418052.731   138827832.546       -1811.147          40.000  
G23  24266307.807   127520323.778        2122.335          43.000  
G15  22475265.193   118108383.110       -1196.894          47.000  
G24  22308438.649   117231705.501         686.863          47.000  
G12  27129520.924                        2768.304          27.000  
J 1  40838740.874   214609026.714        -205.670          44.000  
J 3  39874336.102                       -1040.656          26.000  
G10  27291187.862   143416149.765        2748.977          38.000  
G 5  25456143.683   133772952.331       -3862.762          42.000  
G20  23858567.632   125377618.868        2046.210          44.000  
J 2  38990834.362   204898289.560        -533.466          43.000  
G13  24195009.813   127145713.836       -2854.546          45.000  
G18  23823816.021   125195055.012       -1623.433          44.000  
J 7  39345391.471   206761437.159        -695.306          37.000  
> 2020 11  5  4 50 34.0070000  0 14                     
G28  26418397.530   138829643.915       -1811.835          40.000  
G23  24265903.984   127518201.810        2121.835          43.000  
G15  22475493.029   118109580.325       -1197.373          47.000  
G24  22308307.964   117231019.041         686.172          47.000  
G12  27128991.443                        2769.346          27.000  
J 1  40838780.038   214609232.440        -205.737          44.000  
J 3  39874536.322                       -1040.390          27.000  
G10  27290664.826   143413400.919        2748.522          38.000  
G 5  25456878.904   133776815.397       -3863.024          42.000  
G20  23858178.381   125375572.985        2045.722          45.000  
J 2  38990935.775   204898823.099        -533.409          43.000  
G13  24195553.061   127148568.516       -2854.753          45.000  
G18  23824125.051   125196678.885       -1624.270          44.000  
J 7  39345523.841   206762132.565        -695.219          38.000  
> 2020 11  5  4 50 35.0070000  0 14                     
G28  26418742.209   138831455.697       -1812.014          40.000  
G23  24265500.208   127516080.009        2121.790          43.000  
G15  22475720.898   118110777.763       -1197.644          47.000  
G24  22308177.501   117230333.108         685.578          47.000  
G12  27128463.372                        2768.558          27.000  
J 1  40838819.186   214609438.061        -205.597          44.000  
J 3  39874736.221                       -1040.064          27.000  
G10  27290141.724   143410651.991        2748.710          38.000  
G 5  25457614.049   133780678.662       -3863.593          42.000  
G20  23857789.004   125373527.370        2045.348          45.000  
J 2  38991037.350   204899356.683        -533.677          43.000  
G13  24196096.346   127151423.252       -2854.781          45.000  
G18  23824434.126   125198303.324       -1624.952          44.000  
J 7  39345656.121   206762827.938        -695.440          38.000  
> 2020 11  5  4 50 36.0070000  0 14                     
G28  26419087.119   138833268.113       -1813.158          39.000  
G23  24265096.442   127513958.542        2120.814          43.000  
G15  22475948.816   118111975.571       -1198.506          46.000  
G24  22308047.145   117229647.857         684.379          46.000  
G12  27127938.044                        2768.839          27.000  
J 1  40838858.351   214609643.689        -206.006          43.000  
J 3  39874936.691                       -1041.009          27.000  
G10  27289618.663   143407903.071        2749.074          38.000  
G 5  25458349.200   133784542.227       -3864.434          42.000  
G20  23857399.843   125371482.156        2044.532          44.000  
J 2  38991138.845   204899890.423        -534.168          43.000  
G13  24196639.604   127154278.178       -2855.284          44.000  
G18  23824743.407   125199928.451       -1626.094          43.000  
J 7  39345788.477   206763523.356        -695.873          38.000  
> 2020 11  5  4 50 37.0070000  0 14                     
G28  26419432.204   138835081.371       -1813.756          40.000  
G23  24264692.960   127511837.657        2120.640          44.000  
G15  22476176.828   118113173.998       -1198.766          48.000  
G24  22307916.914   117228963.505         683.955          47.000  
G12  27127410.509                        2768.735          28.000  
J 1  40838897.546   214609849.609        -206.030          44.000  
J 3  39875134.305                       -1040.384          28.000  
G10  27289095.584   143405154.528        2748.594          38.000  
G 5  25459084.570   133788406.371       -3864.578          42.000  
G20  23857010.819   125369437.594        2044.117          45.000  
J 2  38991240.378   204900424.612        -534.494          44.000  
G13  24197182.929   127157133.552       -2855.508          46.000  
G18  23825052.732   125201554.536       -1626.881          45.000  
J 7  39345920.874   206764219.145        -695.746          38.000  
> 2020 11  5  4 50 38.0070000  0 14                     
G28  26419777.357   138836895.517       -1814.758          40.000  
G23  24264289.428   127509717.378        2119.806          44.000  
G15  22476405.054   118114373.061       -1199.513          48.000  
G24  22307786.886   117228280.113         682.812          47.000  
G12  27126883.651                        2768.947          28.000  
J 1  40838936.847   214610055.827        -206.445          44.000  
J 3  39875332.783                       -1040.950          28.000  
G10  27288572.616   143402406.287        2748.096          38.000  
G 5  25459819.881   133792271.107       -3865.007          42.000  
G20  23856621.865   125367393.719        2043.326          45.000  
J 2  38991342.173   204900959.235        -534.873          44.000  
G13  24197726.271   127159989.408       -2856.303          46.000  
G18  23825362.430   125203181.587       -1627.703          45.000  
J 7  39346053.281   206764915.276        -696.095          38.000  
> 2020 11  5  4 50 39.0070000  0 14                     
G28  26420122.679   138838710.463       -1815.088          40.000  
G23  24263886.025   127507597.626        2119.722          44.000  
G15  22476633.225   118115572.713       -1199.682          48.000  
G24  22307657.032   117227597.582         682.298          47.000  
J 1  40838976.109   214610262.262        -206.354          44.000  
J 3  39875532.530                       -1040.813          28.000  
G10  27288049.689   143399658.317        2748.261          38.000  
G 5  25460555.481   133796136.392       -3865.307          42.000  
G20  23856232.978   125365350.456        2043.107          45.000  
J 2  38991444.085   204901494.241        -535.086          44.000  
G13  24198269.798   127162845.639       -2856.244          46.000  
G18  23825672.283   125204809.540       -1628.190          45.000  
J 7  39346185.822   206765611.687        -696.079          38.000  
G12                                                                
> 2020 11  5  4 50 40.0070000  0 14                     
G28  26420468.234   138840525.881       -1815.186          40.000  
G23  24263482.695   127505478.078        2119.205          44.000  
G15  22476861.508   118116772.613       -1200.123          48.000  
G24  22307527.259   117226915.591         681.620          47.000  
J 1  40839015.294   214610468.607        -206.433          44.000  
J 3  39875733.056   209548399.095       -1041.512          28.000  
G10  27287526.733   143396910.288        2748.014          38.000  
G 5  25461291.105   133800001.874       -3865.682          42.000  
G20  23855844.256   125363307.463        2042.836          45.000  
J 2  38991545.905   204902029.293        -535.370          44.000  
G13  24198813.435   127165701.955       -2856.430          46.000  
G18  23825982.195   125206438.075       -1628.808          45.000  
J 7  39346318.330   206766308.085        -696.355          38.000  
G12                                                                
> 2020 11  5  4 50 41.0070000  0 14                     
G28  26420813.723   138842341.942       -1816.140          40.000  
G23  24263079.447   127503358.855        2119.307          44.000  
G15  22477089.875   118117972.882       -1200.207          48.000  
G24  22307397.583   117226234.237         681.274          48.000  
G12  27125305.739                1       2769.288          30.000  
J 1  40839054.509   214610674.967        -206.030          44.000  
J 3  39875933.280   209549440.261       -1040.884          28.000  
G10  27287003.763   143394162.323        2747.974          38.000  
G 5  25462026.729   133803867.678       -3865.800          42.000  
G20  23855455.542   125361264.899        2042.535          45.000  
J 2  38991647.794   204902564.517        -535.032          44.000  
G13  24199357.028   127168558.466       -2856.190          46.000  
G18  23826292.152   125208067.318       -1629.227          45.000  
J 7  39346450.929   206767004.562        -695.815          38.000  
> 2020 11  5  4 50 42.0070000  0 14                     
G28  26421159.446   138844158.351       -1816.600          40.000  
G23  24262676.237   127501239.742        2118.826          44.000  
G15  22477318.404   118119173.286       -1200.431          48.000  
G24  22307268.052   117225553.300         680.743          47.000  
G12  27124778.378                        2769.177          30.000  
J 1  40839093.719   214610881.123        -206.079          44.000  
J 3  39876132.572   209550481.293       -1041.024          28.000  
G10  27286480.822   143391414.153        2748.393          38.000  
G 5  25462762.408   133807733.563       -3865.704          42.000  
G20  23855066.833   125359222.485        2042.374          45.000  
J 2  38991749.581   204903099.682        -535.242          44.000  
G13  24199900.680   127171414.932       -2856.401          46.000  
G18  23826602.333   125209697.024       -1629.937          45.000  
J 7  39346583.489   206767700.897        -696.471          38.000  
> 2020 11  5  4 50 43.0070000  0 14                     
G28  26421505.132   138845974.973       -1816.695          40.000  
G23  24262272.975   127499120.572        2119.072          43.000  
G15  22477546.854   118120373.710       -1200.614          47.000  
G24  22307138.468   117224872.674         680.413          47.000  
G12  27124250.701                        2769.809          29.000  
J 1  40839132.897   214611086.935        -205.676          44.000  
J 3  39876330.744   209551521.914       -1040.453          28.000  
G10  27285957.929   143388665.689        2748.689          38.000  
G 5  25463497.973   133811599.403       -3865.626          42.000  
G20  23854678.122   125357180.135        2042.269          45.000  
J 2  38991851.375   204903634.666        -535.004          44.000  
G13  24200444.133   127174271.261       -2856.304          45.000  
G18  23826912.537   125211327.065       -1630.269          44.000  
J 7  39346715.912   206768396.933        -695.493          38.000  
> 2020 11  5  4 50 44.0070000  0 14                     
G28  26421850.855   138847791.845       -1817.109          40.000  
G23  24261869.596   127497001.350        2119.279          43.000  
G15  22477775.212   118121574.104       -1200.461          47.000  
G24  22307008.913   117224192.345         680.024          47.000  
G12  27123723.749                        2769.789          30.000  
J 1  40839172.040   214611292.396        -205.414          44.000  
J 3  39876526.530                       -1040.434          28.000  
G10  27285434.952   143385916.922        2748.911          38.000  
G 5  25464233.598   133815465.198       -3865.785          42.000  
G20  23854289.397   125355137.793        2042.367          44.000  
J 2  38991953.066   204904169.426        -534.485          44.000  
G13  24200987.613   127177127.394       -2856.106          45.000  
G18  23827222.819   125212957.408       -1630.298          44.000  
J 7  39346848.358   206769092.699        -695.792          38.000  
> 2020 11  5  4 50 45.0070000  0 14                     
G28  26422196.638   138849608.973       -1817.178          40.000  
G23  24261466.290   127494882.139        2119.058          43.000  
G15  22478003.637   118122774.551       -1200.597          47.000  
G24  22306879.641   117223512.334         679.812          47.000  
G12  27123197.911                        2770.590          30.000  
J 1  40839211.160   214611497.531        -204.864          44.000  
J 3  39876728.121                       -1039.721          28.000  
G10  27284911.892   143383167.859        2749.317          38.000  
G 5  25464969.263   133819330.978       -3865.724          42.000  
G20  23853900.771   125353095.531        2042.230          45.000  
J 2  38992054.805   204904704.038        -534.540          44.000  
G13  24201531.077   127179983.401       -2856.004          45.000  
G18  23827533.089   125214588.140       -1630.865          44.000  
J 7  39346980.654   206769788.199        -695.284          38.000  
> 2020 11  5  4 50 46.0070000  0 14                     
G28  26422542.477   138851426.547       -1817.971          40.000  
G23  24261063.044   127492763.068        2118.950          43.000  
G15  22478232.219   118123975.182       -1200.920          47.000  
G24  22306750.423   117222832.818         679.110          46.000  
G12  27122670.731                        2771.343          30.000  
J 1  40839250.197   214611702.519        -204.694          43.000  
J 3  39876927.196   209554642.200       -1040.165          28.000  
G10  27284388.667   143380418.689        2749.201          38.000  
G 5  25465704.907   133823196.908       -3866.167          42.000  
G20  23853512.176   125351053.503        2041.940          44.000  
J 2  38992156.574   204905238.655        -534.779          43.000  
G13  24202074.481   127182839.411       -2855.967          45.000  
G18  23827843.515   125216219.386       -1631.534          44.000  
J 7  39347112.979   206770483.630        -695.581          38.000  
> 2020 11  5  4 50 47.0070000  0 14                     
G28  26422888.366   138853244.617       -1818.380          40.000  
G23  24260659.893   127490644.249        2118.724          44.000  
G15  22478460.725   118125176.108       -1201.041          48.000  
G24  22306621.214   117222153.883         678.564          48.000  
G12  27122143.335                        2770.516          31.000  
J 1  40839289.165   214611907.473        -204.871          44.000  
J 3  39877125.243   209555682.018       -1039.496          28.000  
G10  27283865.616   143377669.495        2749.138          39.000  
G 5  25466440.625   133827063.094       -3866.448          42.000  
G20  23853123.623   125349011.797        2041.613          45.000  
J 2  38992258.314   204905773.347        -534.701          44.000  
G13  24202617.927   127185695.543       -2856.265          46.000  
G18  23828154.124   125217851.255       -1632.260          45.000  
J 7  39347245.265   206771179.038        -695.413          38.000  
> 2020 11  5  4 50 48.0070000  0 14                     
G28  26423234.450   138855063.117       -1818.443          40.000  
G23  24260256.710   127488525.569        2118.802          44.000  
G15  22478689.277   118126377.208       -1200.902          48.000  
G24  22306492.149   117221475.412         678.424          48.000  
G12  27121616.255                        2771.830          31.000  
J 1  40839328.130   214612112.233        -204.523          44.000  
J 3  39877323.428   209556721.727       -1039.591          28.000  
G10  27283342.473   143374920.183        2749.324          39.000  
G 5  25467176.325   133830929.391       -3866.036          42.000  
G20  23852735.167   125346970.321        2041.497          45.000  
J 2  38992360.054   204906308.032        -534.478          44.000  
G13  24203161.397   127188551.677       -2855.927          46.000  
G18  23828464.744   125219483.621       -1632.399          45.000  
J 7  39347377.560   206771874.348        -694.985          39.000  
> 2020 11  5  4 50 49.0070000  0 14                     
G28  26423580.493   138856881.821       -1819.117          40.000  
G23  24259853.539   127486406.836        2118.484          44.000  
G15  22478917.832   118127578.304       -1201.422          48.000  
G24  22306363.047   117220797.225         677.854          48.000  
G12  27121089.002                        2771.159          32.000  
J 1  40839367.030   214612316.655        -204.559          44.000  
J 3  39877521.214   209557761.089       -1039.664          28.000  
G10  27282819.169   143372170.525        2749.741          39.000  
G 5  25467912.035   133834795.648       -3866.439          42.000  
G20  23852346.617   125344928.854        2041.319          45.000  
J 2  38992461.778   204906842.509        -534.672          44.000  
G13  24203704.948   127191407.613       -2856.074          46.000  
G18  23828775.311   125221116.319       -1632.995          45.000  
J 7  39347509.869   206772569.370        -694.823          39.000  
> 2020 11  5  4 50 50.0070000  0 14                     
G28  26423926.608   138858701.165       -1819.813          40.000  
G23  24259450.422   127484288.444        2118.181          44.000  
G15  22479146.498   118128779.774       -1201.803          48.000  
G24  22306234.140   117220119.718         677.134          48.000  
G12  27120561.537                        2771.754          32.000  
J 1  40839405.915   214612521.093        -204.517          44.000  
J 3  39877718.976                       -1039.456          28.000  
G10  27282295.852   143369420.936        2749.789          39.000  
G 5  25468647.913   133838662.248       -3866.897          42.000  
G20  23851958.216   125342887.819        2040.737          45.000  
J 2  38992563.442   204907377.160        -534.732          44.000  
G13  24204248.518   127194263.757       -2856.239          46.000  
G18  23829086.131   125222749.722       -1633.752          45.000  
J 7  39347642.091   206773264.505        -695.093          39.000  
> 2020 11  5  4 50 51.0070000  0 14                     
G28  26424272.851   138860520.860       -1819.946          40.000  
G23  24259047.305   127482170.142        2118.259          44.000  
G15  22479375.057   118129981.388       -1201.828          47.000  
G24  22306105.154   117219442.641         676.704          47.000  
G12  27120033.969                        2771.972          31.000  
J 1  40839444.711   214612725.330        -204.230          44.000  
J 3  39877915.253                       -1039.535          27.000  
G10  27281772.599   143366671.206        2749.784          39.000  
G 5  25469383.739   133842528.919       -3866.706          42.000  
G20  23851569.886   125340846.953        2040.594          44.000  
J 2  38992665.198   204907911.773        -534.773          44.000  
G13  24204791.981   127197119.868       -2856.147          46.000  
G18  23829397.068   125224383.607       -1634.391          44.000  
J 7  39347774.366   206773959.493        -695.420          38.000  
> 2020 11  5  4 50 52.0070000  0 14                     
G28  26424619.239   138862341.105       -1820.725          40.000  
G23  24258644.296   127480052.097        2117.878          44.000  
G15  22479603.802   118131183.284       -1202.052          47.000  
G24  22305976.412   117218766.133         676.213          47.000  
G12  27119506.463                        2771.867          31.000  
J 1  40839483.632   214612929.509        -204.059          44.000  
J 3  39878111.470                       -1039.380          27.000  
G10  27281249.351   143363921.437        2749.834          38.000  
G 5  25470119.581   133846395.847       -3867.198          42.000  
G20  23851181.569   125338806.411        2040.245          44.000  
J 2  38992767.009   204908446.461        -534.743          44.000  
G13  24205335.511   127199976.088       -2856.310          45.000  
G18  23829708.189   125226018.086       -1634.785          44.000  
J 7  39347906.606   206774654.464        -695.118          38.000  
> 2020 11  5  4 50 53.0070000  0 14                     
G28  26424965.742   138864161.682       -1821.066          40.000  
G23  24258241.233   127477934.110        2118.023          44.000  
G15  22479832.456   118132385.289       -1202.055          47.000  
G24  22305847.777   117218090.029         676.011          47.000  
G12  27118978.589   142511191.384        2772.449          31.000  
J 1  40839522.371   214613133.445        -203.723          44.000  
J 3  39878306.590                       -1038.698          26.000  
G10  27280726.168   143361171.457        2749.950          38.000  
G 5  25470855.453   133850262.828       -3866.994          42.000  
G20  23850793.265   125336765.999        2040.352          45.000  
J 2  38992868.583   204908981.064        -534.506          44.000  
G13  24205879.044   127202832.252       -2856.181          45.000  
G18  23830019.343   125227653.007       -1635.059          44.000  
J 7  39348038.912   206775349.247        -694.607          38.000  
> 2020 11  5  4 50 54.0070000  0 14                     
G28  26425312.294   138865982.953       -1821.826          40.000  
G23  24257838.301   127475816.571        2117.436          44.000  
G15  22480061.208   118133587.794       -1202.840          47.000  
G24  22305719.255   117217414.703         674.896          47.000  
G12  27118450.882   142508419.051        2771.871          32.000  
J 1  40839561.232   214613337.518        -203.845          44.000  
J 3  39878502.504   209562956.966       -1039.256          26.000  
G10  27280202.828   143358421.653        2749.799          38.000  
G 5  25471591.433   133854130.259       -3867.800          41.000  
G20  23850405.010   125334726.124        2039.598          45.000  
J 2  38992970.427   204909515.959        -535.033          44.000  
G13  24206422.609   127205688.718       -2856.747          45.000  
G18  23830330.624   125229288.750       -1636.197          44.000  
J 7  39348171.144   206776044.232        -694.762          38.000  
> 2020 11  5  4 50 55.0070000  0 14                     
G28  26425659.093   138867804.894       -1822.516          40.000  
G23  24257435.415   127473699.438        2116.646          44.000  
G15  22480290.080   118134790.729       -1203.385          47.000  
G24  22305590.859   117216740.102         673.903          47.000  
G12  27117923.233   142505646.733        2771.542          32.000  
J 1  40839600.015   214613541.695        -204.291          44.000  
J 3  39878698.360                       -1039.424          26.000  
G10  27279679.471   143355671.984        2749.415          38.000  
G 5  25472327.506   133857998.072       -3868.313          41.000  
G20  23850016.934   125332686.723        2038.920          45.000  
J 2  38993072.292   204910051.099        -535.553          44.000  
G13  24206966.262   127208545.433       -2857.119          45.000  
G18  23830642.089   125230925.256       -1637.208          44.000  
J 7  39348303.427   206776739.409        -695.718          38.000  
> 2020 11  5  4 50 56.0070000  0 14                     
G28  26426005.901   138869627.603       -1822.953          40.000  
G23  24257032.707   127471582.780        2116.316          44.000  
G15  22480519.088   118135994.186       -1203.806          48.000  
G24  22305462.654   117216066.306         673.299          48.000  
G12  27117395.798   142502874.455        2772.147          33.000  
J 1  40839638.940   214613746.051        -204.449          45.000  
J 3  39878893.484                       -1039.321          26.000  
G10  27279156.338   143352922.518        2749.499          39.000  
G 5  25473063.652   133861866.343       -3868.542          42.000  
G20  23849628.951   125330647.884        2038.475          45.000  
J 2  38993174.238   204910586.563        -535.768          44.000  
G13  24207509.875   127211402.505       -2857.242          46.000  
G18  23830953.613   125232562.615       -1637.601          44.000  
J 7  39348435.824   206777434.808        -695.847          38.000  
> 2020 11  5  4 50 57.0070000  0 14                     
G28  26426352.903   138871451.268       -1824.442          40.000  
G23  24256630.055   127469466.797        2115.282          44.000  
G15  22480748.259   118137198.362       -1204.834          48.000  
G24  22305334.528   117215393.506         672.064          48.000  
G12  27116868.446   142500102.498        2771.189          34.000  
J 1  40839677.862   214613950.759        -204.956          44.000  
J 3  39879089.927                       -1040.384          27.000  
G10  27278633.216   143350173.468        2748.857          39.000  
G 5  25473799.934   133865735.300       -3869.644          42.000  
G20  23849241.169   125328609.797        2037.528          45.000  
J 2  38993276.120   204911122.536        -536.414          44.000  
G13  24208053.639   127214260.106       -2858.042          46.000  
G18  23831265.353   125234201.022       -1639.336          45.000  
J 7  39348568.214   206778130.627        -696.580          39.000  
> 2020 11  5  4 50 58.0070000  0 14                     
G28  26426700.084   138873275.976       -1825.070          40.000  
G23  24256227.505   127467351.563        2114.968          44.000  
G15  22480977.452   118138403.335       -1205.219          48.000  
G24  22305206.690   117214721.789         671.388          47.000  
G12  27116341.313   142497330.890        2771.320          34.000  
J 1  40839716.883   214614155.935        -205.402          44.000  
J 3  39879286.185                       -1040.830          27.000  
G10  27278110.071   143347424.910        2748.462          39.000  
G 5  25474536.351   133869605.003       -3869.791          42.000  
G20  23848853.580   125326572.540        2037.003          45.000  
J 2  38993378.256   204911659.120        -536.753          44.000  
G13  24208597.501   127217118.339       -2858.419          46.000  
G18  23831577.370   125235840.545       -1639.973          45.000  
J 7  39348700.719   206778826.984        -696.671          38.000  
> 2020 11  5  4 50 59.0070000  0 14                     
G28  26427047.444   138875101.289       -1825.720          39.000  
G23  24255824.956   127465236.682        2114.766          43.000  
G15  22481206.879   118139608.703       -1205.588          47.000  
G24  22305079.047   117214050.776         670.625          47.000  
G12  27115813.998   142494559.213        2771.363          34.000  
J 1  40839755.952   214614361.145        -205.164          44.000  
J 3  39879484.974                       -1040.491          26.000  
G10  27277587.007   143344676.432        2748.444          38.000  
G 5  25475272.758   133873475.072       -3870.224          41.000  
G20  23848466.021   125324535.709        2036.805          44.000  
J 2  38993480.415   204912195.890        -536.777          43.000  
G13  24209141.439   127219976.785       -2858.580          45.000  
G18  23831889.480   125237480.791       -1640.550          44.000  
J 7  39348833.354   206779523.403        -696.130          38.000  
> 2020 11  5  4 51  0.0070000  0 14                     
G28  26427394.960   138876927.145       -1826.057          39.000  
G23  24255422.615   127463122.080        2114.521          43.000  
G15  22481436.444   118140814.386       -1205.742          47.000  
G24  22304951.444   117213380.380         670.216          47.000  
G12  27115286.724   142491787.358        2772.559          34.000  
J 1  40839794.975   214614566.323        -205.078          43.000  
J 3  39879681.845                       -1040.510          26.000  
G10  27277063.986   143341927.950        2748.729          38.000  
G 5  25476009.337   133877345.382       -3870.379          41.000  
G20  23848078.521   125322499.243        2036.448          44.000  
J 2  38993582.592   204912732.784        -536.845          43.000  
G13  24209685.328   127222835.370       -2858.501          45.000  
G18  23832201.795   125239121.684       -1641.133          44.000  
J 7  39348965.876   206780219.885        -696.512          38.000  
> 2020 11  5  4 51  1.0070000  0 14                     
G28  26427742.540   138878753.477       -1826.425          40.000  
G23  24255020.297   127461007.670        2114.214          43.000  
G15  22481665.955   118142020.303       -1205.920          47.000  
G24  22304824.010   117212710.517         669.708          47.000  
G12  27114759.348   142489015.376        2771.976          34.000  
J 1  40839833.978   214614771.387        -204.901          44.000  
J 3  39879879.542                       -1039.614          26.000  
G10  27276540.928   143339179.382        2748.988          38.000  
G 5  25476745.848   133881215.885       -3870.439          41.000  
G20  23847691.074   125320463.043        2036.221          45.000  
J 2  38993684.778   204913269.715        -536.936          44.000  
G13  24210229.383   127225694.002       -2858.494          45.000  
G18  23832514.114   125240763.140       -1641.870          44.000  
J 7  39349098.399   206780916.324        -696.674          38.000  
> 2020 11  5  4 51  2.0070000  0 14                     
G28  26428090.163   138880580.335       -1827.552          39.000  
G23  24254618.017   127458893.501        2113.906          43.000  
G15  22481895.552   118143226.504       -1206.556          47.000  
G24  22304696.611   117212041.258         668.753          46.000  
G12  27114231.668   142486243.195        2772.516          34.000  
J 1  40839872.962   214614976.395        -205.133          44.000  
J 3  39880079.396                       -1039.663          25.000  
G10  27276017.938   143336430.811        2748.070          38.000  
G 5  25477482.365   133885086.648       -3871.301          41.000  
G20  23847303.684   125318427.177        2035.595          44.000  
J 2  38993786.995   204913806.739        -537.387          43.000  
G13  24210773.345   127228552.764       -2859.036          44.000  
G18  23832826.515   125242405.202       -1642.535          44.000  
J 7  39349231.003   206781612.741        -696.747          38.000  
> 2020 11  5  4 51  3.0070000  0 14                     
G28  26428437.816   138882407.667       -1827.596          40.000  
G23  24254215.824   127456779.545        2113.952          44.000  
G15  22482125.124   118144432.958       -1206.513          47.000  
G24  22304569.443   117211372.535         668.498          47.000  
G12  27113704.003   142483470.850        2772.510          34.000  
J 1  40839911.960   214615181.302        -204.730          44.000  
J 3  39880278.524                       -1039.766          26.000  
G10  27275494.893   143333682.166        2748.595          38.000  
G 5  25478218.963   133888957.596       -3871.142          42.000  
G20  23846916.232   125316391.593        2035.408          45.000  
J 2  38993889.237   204914343.801        -536.897          44.000  
G13  24211317.475   127231411.593       -2858.786          45.000  
G18  23833139.124   125244047.849       -1642.832          44.000  
J 7  39349363.547   206782309.127        -696.178          38.000  
> 2020 11  5  4 51  4.0070000  0 14                     
G28  26428785.682   138884235.636       -1828.652          40.000  
G23  24253813.719   127454665.953        2113.148          44.000  
G15  22482354.826   118145639.819       -1207.352          47.000  
G24  22304442.385   117210704.534         667.304          47.000  
G12  27113176.101   142480698.440        2772.109          34.000  
J 1  40839950.905   214615386.282        -205.524          44.000  
J 3  39880476.748                       -1040.517          26.000  
G10  27274971.848   143330933.612        2748.304          38.000  
G 5  25478955.652   133892828.905       -3871.844          42.000  
G20  23846528.949   125314356.454        2034.527          45.000  
J 2  38993991.487   204914881.091        -537.759          44.000  
G13  24211861.513   127234270.649       -2859.489          45.000  
G18  23833451.829   125245691.230       -1644.148          44.000  
J 7  39349496.102   206783005.641        -696.886          38.000  
> 2020 11  5  4 51  5.0070000  0 14                     
G28  26429133.704   138886064.243       -1828.870          40.000  
G23  24253411.532   127452552.726        2113.079          44.000  
G15  22482584.579   118146847.091       -1207.440          47.000  
G24  22304315.374   117210037.215         667.045          47.000  
G12  27112648.333   142477926.028        2772.575          34.000  
J 1  40839990.046   214615591.294        -205.023          44.000  
J 3  39880673.796                       -1040.155          26.000  
G10  27274448.944   143328185.141        2748.726          37.000  
G 5  25479692.386   133896700.558       -3871.616          42.000  
G20  23846141.680   125312321.741        2034.545          44.000  
J 2  38994093.747   204915418.577        -537.534          44.000  
G13  24212405.576   127237129.937       -2859.422          45.000  
G18  23833764.605   125247335.331       -1644.236          44.000  
J 7  39349628.708   206783702.277        -696.742          38.000  
> 2020 11  5  4 51  6.0070000  0 14                     
G28  26429481.873   138887893.364       -1829.193          39.000  
G23  24253009.349   127450439.749        2112.767          43.000  
G15  22482814.317   118148054.633       -1207.535          47.000  
G24  22304188.521   117209370.463         666.567          47.000  
G12  27112120.550   142475153.488        2772.258          35.000  
J 1  40840029.067   214615796.252        -204.755          43.000  
J 3  39880873.166                       -1040.185          25.000  
G10  27273925.869   143325436.690        2748.398          37.000  
G 5  25480429.143   133900572.465       -3872.023          41.000  
G20  23845754.545   125310287.369        2034.259          44.000  
J 2  38994196.073   204915956.159        -537.613          43.000  
G13  24212949.718   127239989.332       -2859.323          45.000  
G18  23834077.581   125248980.065       -1645.093          44.000  
J 7  39349761.273   206784398.915        -696.518          37.000  
> 2020 11  5  4 51  7.0070000  0 14                     
G28  26429829.992   138889723.344       -1830.546          39.000  
G23  24252607.293   127448327.338        2112.182          43.000  
G15  22483044.112   118149262.801       -1208.402          47.000  
G24  22304061.819   117208704.625         665.363          46.000  
G12  27111592.841   142472381.055        2772.242          35.000  
J 1  40840068.098   214616001.495        -205.469          43.000  
J 3  39881071.466                       -1040.559          25.000  
G10  27273402.950   143322688.483        2748.458          37.000  
G 5  25481165.979   133904444.931       -3872.922          41.000  
G20  23845367.559   125308253.641        2033.405          44.000  
J 2  38994298.400   204916494.148        -537.966          43.000  
G13  24213493.959   127242849.168       -2860.097          45.000  
G18  23834390.696   125250625.718       -1645.754          44.000  
J 7  39349893.932   206785095.876        -697.209          37.000  
> 2020 11  5  4 51  8.0070000  0 14                     
G28  26430178.252   138891553.790       -1831.066          39.000  
G23  24252205.389   127446215.109        2112.141          43.000  
G15  22483274.084   118150471.179       -1208.373          47.000  
G24  22303935.176   117208039.301         665.111          47.000  
G12  27111065.226   142469608.455        2772.372          34.000  
J 1  40840107.082   214616206.603        -205.029          44.000  
J 3  39881270.027                       -1040.180          25.000  
G10  27272879.967   143319940.242        2748.467          37.000  
G 5  25481902.973   133908317.563       -3872.607          42.000  
G20  23844980.640   125306220.182        2033.340          44.000  
J 2  38994400.872   204917032.186        -538.249          43.000  
G13  24214038.138   127245709.040       -2859.878          44.000  
G18  23834703.921   125252271.951       -1646.577          44.000  
J 7  39350026.519   206785792.777        -696.844          37.000  
> 2020 11  5  4 51  9.0070000  0 14                     
G28  26430526.710   138893384.787       -1831.505          40.000  
G23  24251803.450   127444103.189        2111.671          44.000  
G15  22483504.099   118151679.919       -1208.946          47.000  
G24  22303808.773   117207374.646         664.241          47.000  
G12  27110537.615   142466835.730        2772.554          35.000  
J 1  40840146.088   214616411.719        -205.377          44.000  
J 3  39881470.109                       -1040.168          26.000  
G10  27272356.964   143317192.016        2748.251          38.000  
G 5  25482639.937   133912190.521       -3873.165          42.000  
G20  23844593.739   125304187.099        2032.920          45.000  
J 2  38994503.285   204917570.357        -538.436          44.000  
G13  24214582.400   127248569.098       -2860.299          45.000  
G18  23835017.326   125253918.860       -1647.670          44.000  
J 7  39350159.236   206786489.744        -697.037          38.000  
> 2020 11  5  4 51 10.0070000  0 14                     
G28  26430875.231   138895216.381       -1831.583          40.000  
G23  24251401.689   127441991.608        2111.587          44.000  
G15  22483734.208   118152889.025       -1209.200          48.000  
G24  22303682.442   117206710.627         663.868          48.000  
G12  27110009.995   142464062.947        2773.121          36.000  
J 1  40840185.129   214616616.857        -205.292          45.000  
J 3  39881667.425                       -1040.178          25.000  
G10  27271833.959   143314443.852        2748.247          38.000  
G 5  25483377.000   133916063.771       -3873.125          42.000  
G20  23844206.867   125302154.438        2032.540          45.000  
J 2  38994605.744   204918108.709        -538.381          44.000  
G13  24215126.631   127251429.345       -2860.286          45.000  
G18  23835330.882   125255566.434       -1647.654          44.000  
J 7  39350291.938   206787186.790        -697.379          38.000  
> 2020 11  5  4 51 11.0070000  0 14                     
G28  26431223.845   138897048.587       -1832.468          39.000  
G23  24250999.883   127439880.332        2111.364          44.000  
G15  22483964.355   118154098.490       -1209.683          47.000  
G24  22303556.197   117206047.263         663.148          47.000  
G12  27109482.414   142461290.083        2772.809          36.000  
J 1  40840224.173   214616821.995        -204.871          44.000  
J 3  39881863.249                       -1040.130          25.000  
G10  27271310.970   143311695.728        2748.250          38.000  
G 5  25484114.135   133919937.351       -3873.552          42.000  
G20  23843820.177   125300122.174        2031.962          45.000  
J 2  38994708.167   204918647.224        -538.753          44.000  
G13  24215670.889   127254289.771       -2860.407          45.000  
G18  23835644.502   125257214.725       -1648.632          44.000  
J 7  39350424.545   206787883.912        -696.872          38.000  
> 2020 11  5  4 51 12.0070000  0 14                     
G28  26431572.726   138898881.471       -1833.271          39.000  
G23  24250598.251   127437769.485        2110.503          43.000  
G15  22484194.631   118155308.405       -1210.181          46.000  
G24  22303430.091   117205384.619         662.172          46.000  
G12  27108955.008   142458517.213        2772.998          35.000  
J 1  40840263.356   214617027.238        -205.139          43.000  
J 3  39882060.452                       -1040.637          25.000  
G10  27270788.003   143308947.769        2747.823          37.000  
G 5  25484851.274   133923811.331       -3874.227          41.000  
G20  23843433.608   125298090.385        2031.591          44.000  
J 2  38994810.647   204919185.974        -538.822          43.000  
G13  24216215.288   127257150.469       -2860.791          44.000  
G18  23835958.289   125258863.779       -1649.414          44.000  
J 7  39350557.194   206788581.211        -697.397          37.000  
> 2020 11  5  4 51 13.0070000  0 14                     
G28  26431921.582   138900714.959       -1833.616          40.000  
G23  24250196.583   127435658.975        2110.305          45.000  
G15  22484425.024   118156518.719       -1210.601          48.000  
G24  22303304.188   117204722.658         661.523          48.000  
G12  27108427.384   142455744.327        2772.560          36.000  
J 1  40840302.358   214617232.536        -205.219          44.000  
J 3  39882259.069                3      -1040.417          25.000  
G10  27270265.085   143306199.896        2747.676          38.000  
G 5  25485588.533   133927685.656       -3874.397          42.000  
G20  23843047.081   125296059.046        2031.026          45.000  
J 2  38994913.303   204919724.940        -539.194          44.000  
G13  24216759.728   127260011.391       -2860.995          46.000  
G18  23836272.208   125260513.570       -1650.281          45.000  
J 7  39350689.939   206789278.613        -697.526          38.000  
> 2020 11  5  4 51 14.0070000  0 14                     
G28  26432270.665   138902548.990       -1834.525          40.000  
G23  24249795.072   127433548.714        2110.076          43.000  
G15  22484655.372   118157729.301       -1210.879          47.000  
G24  22303178.324   117204061.263         661.151          47.000  
G12  27107899.706   142452971.296        2772.438          36.000  
J 1  40840341.521   214617437.788        -205.377          44.000  
J 3  39882457.263                2      -1040.696          25.000  
G10  27269742.061   143303451.994        2747.623          38.000  
G 5  25486325.879   133931560.209       -3874.634          42.000  
G20  23842660.581   125294028.027        2030.679          44.000  
J 2  38995015.842   204920263.984        -539.187          43.000  
G13  24217304.152   127262872.426       -2861.352          45.000  
G18  23836586.282   125262163.949       -1650.820          44.000  
J 7  39350822.698   206789976.003        -697.341          38.000  
> 2020 11  5  4 51 15.0070000  0 14                     
G28  26432619.818   138904383.544       -1835.099          39.000  
G23  24249393.496   127431438.729        2109.738          43.000  
G15  22484885.811   118158940.208       -1211.245          47.000  
G24  22303052.591   117203400.481         660.335          47.000  
G12  27107371.987   142450198.081        2772.898          36.000  
J 1  40840380.515   214617642.974        -205.267          44.000  
J 3  39882655.820                2      -1040.160          25.000  
G10  27269219.161   143300704.045        2747.901          38.000  
G 5  25487063.286   133935435.032       -3875.137          42.000  
G20  23842274.128   125291997.353        2030.272          45.000  
J 2  38995118.436   204920803.153        -539.581          44.000  
G13  24217848.618   127265733.584       -2861.535          45.000  
G18  23836900.517   125263814.973       -1651.378          44.000  
J 7  39350955.409   206790673.423        -697.386          38.000  
> 2020 11  5  4 51 16.0070000  0 14                     
G28  26432969.040   138906218.523       -1835.051          39.000  
G23  24248991.977   127429328.871        2110.080          44.000  
G15  22485116.252   118160151.297       -1210.971          47.000  
G24  22302926.934   117202740.189         660.289          47.000  
G12  27106844.260   142447424.672        2773.488          36.000  
J 1  40840419.648   214617848.022        -204.980          44.000  
J 3  39882853.846                2      -1040.053          25.000  
G10  27268696.175   143297956.015        2748.597          38.000  
G 5  25487800.586   133939309.977       -3874.754          42.000  
G20  23841887.699   125289966.894        2030.546          45.000  
J 2  38995221.078   204921342.292        -539.071          44.000  
G13  24218393.097   127268594.749       -2860.890          45.000  
G18  23837214.753   125265466.515       -1651.636          44.000  
J 7  39351088.042   206791370.740        -696.776          38.000  
> 2020 11  5  4 51 17.0070000  0 14                     
G28  26433318.291   138908053.964       -1836.066          39.000  
G23  24248590.586   127427219.228        2109.382          44.000  
G15  22485346.766   118161362.609       -1211.642          47.000  
G24  22302801.379   117202080.413         659.303          47.000  
G12  27106316.512   142444651.036        2773.138          36.000  
J 1  40840458.602   214618052.937        -205.133          44.000  
J 3  39883052.542                2      -1040.559          24.000  
G10  27268173.260   143295207.919        2747.742          38.000  
G 5  25488538.013   133943185.127       -3875.638          42.000  
G20  23841501.445   125287936.720        2029.830          45.000  
J 2  38995323.730   204921881.470        -539.532          44.000  
G13  24218937.551   127271455.978       -2861.426          45.000  
G18  23837529.097   125267118.619       -1652.526          44.000  
J 7  39351220.764   206792068.031        -697.712          38.000  
> 2020 11  5  4 51 18.0070000  0 14                     
G28  26433667.628   138909889.969       -1836.554          39.000  
G23  24248189.120   127425109.864        2109.512          44.000  
G15  22485577.305   118162574.260       -1211.751          47.000  
G24  22302675.954   117201421.257         658.753          47.000  
G12  27105788.735   142441877.302        2773.193          36.000  
J 1  40840497.613   214618257.834        -204.846          44.000  
J 3  39883250.721                2      -1039.624          24.000  
G10  27267650.292   143292459.813        2748.174          38.000  
G 5  25489275.468   133947060.554       -3875.668          42.000  
G20  23841115.188   125285906.918        2029.519          45.000  
J 2  38995426.327   204922420.790        -539.407          44.000  
G13  24219482.041   127274317.363       -2861.441          45.000  
G18  23837843.559   125268771.381       -1653.127          44.000  
J 7  39351353.412   206792765.367        -697.637          38.000  
> 2020 11  5  4 51 19.0070000  0 14                     
G28  26434017.224   138911726.619       -1836.861          39.000  
G23  24247787.777   127423000.896        2108.885          44.000  
G15  22485807.985   118163786.328       -1211.949          47.000  
G24  22302550.624   117200762.791         658.289          47.000  
G12  27105260.854   142439103.488        2774.318          36.000  
J 1  40840536.644   214618462.814        -204.895          44.000  
J 3  39883445.626                1      -1040.660          24.000  
G10  27267127.404   143289711.834        2748.181          38.000  
G 5  25490013.059   133950936.335       -3875.799          42.000  
G20  23840728.983   125283877.569        2029.253          45.000  
J 2  38995528.994   204922960.313        -539.251          44.000  
G13  24220026.623   127277178.977       -2861.464          45.000  
G18  23838158.149   125270424.884       -1653.762          44.000  
J 7  39351486.073   206793462.804        -697.384          38.000  
> 2020 11  5  4 51 20.0070000  0 14                     
G28  26434366.747   138913563.797       -1837.355          40.000  
G23  24247386.436   127420892.178        2108.466          44.000  
G15  22486038.672   118164998.707       -1212.618          48.000  
G24  22302425.393   117200104.928         657.548          48.000  
G12  27104733.025   142436329.615        2774.354          36.000  
J 1  40840575.699   214618667.745        -205.115          45.000  
J 3  39883642.508                       -1040.213          24.000  
G10  27266604.530   143286963.838        2747.741          38.000  
G 5  25490750.584   133954812.382       -3876.333          42.000  
G20  23840342.886   125281848.560        2028.777          46.000  
J 2  38995631.542   204923499.961        -539.677          45.000  
G13  24220571.185   127280040.728       -2861.965          45.000  
G18  23838473.029   125272079.013       -1654.565          45.000  
J 7  39351618.917   206794160.273        -697.455          39.000  
> 2020 11  5  4 51 21.0070000  0 14                     
G28  26434716.437   138915401.638       -1838.561          40.000  
G23  24246985.143   127418783.809        2108.273          44.000  
G15  22486269.432   118166211.477       -1213.039          48.000  
G24  22302300.320   117199447.755         656.846          48.000  
G12  27104205.098   142433555.665        2773.812          36.000  
J 1  40840614.678   214618872.729        -205.127          44.000  
J 3  39883840.892                       -1040.669          24.000  
G10  27266081.605   143284215.931        2747.537          38.000  
G 5  25491488.162   133958688.784       -3876.835          42.000  
G20  23839956.854   125279819.997        2028.266          46.000  
J 2  38995734.283   204924039.812        -539.989          44.000  
G13  24221115.754   127282902.704       -2862.194          45.000  
G18  23838787.974   125273733.870       -1655.174          45.000  
J 7  39351751.639   206794857.886        -698.238          38.000  
> 2020 11  5  4 51 22.0070000  0 14                     
G28  26435066.230   138917240.070       -1838.864          40.000  
G23  24246584.181   127416675.822        2107.776          44.000  
G15  22486500.264   118167424.646       -1213.478          48.000  
G24  22302175.342   117198791.269         656.113          48.000  
G12  27103677.024   142430781.693        2773.886          36.000  
J 1  40840653.764   214619077.757        -205.054          45.000  
J 3  39884038.187                       -1041.049          24.000  
G10  27265558.560   143281468.122        2747.473          38.000  
G 5  25492225.880   133962565.515       -3876.973          43.000  
G20  23839570.994   125277791.860        2027.906          46.000  
J 2  38995837.088   204924579.855        -540.020          44.000  
G13  24221660.334   127285764.898       -2862.377          46.000  
G18  23839102.972   125275389.456       -1655.974          45.000  
J 7  39351884.423   206795555.564        -697.668          39.000  
> 2020 11  5  4 51 23.0070000  0 14                     
G28  26435416.229   138919079.243       -1839.718          39.000  
G23  24246183.170   127414568.277        2107.258          44.000  
G15  22486731.234   118168638.298       -1213.823          47.000  
G24  22302050.596   117198135.581         655.256          47.000  
G12  27103149.008   142428007.778        2773.493          35.000  
J 1  40840692.823   214619282.930        -205.060          44.000  
J 3  39884237.211                       -1040.973          23.000  
G10  27265035.730   143278720.503        2746.932          37.000  
G 5  25492963.682   133966442.707       -3877.551          42.000  
G20  23839185.171   125275764.259        2027.183          45.000  
J 2  38995939.962   204925120.204        -540.676          44.000  
G13  24222205.068   127288627.400       -2862.655          45.000  
G18  23839418.102   125277045.851       -1656.816          44.000  
J 7  39352017.207   206796253.481        -698.392          38.000  
> 2020 11  5  4 51 24.0070000  0 14                     
G28  26435766.370   138920919.185       -1840.461          39.000  
G23  24245782.214   127412461.219        2106.788          44.000  
G15  22486962.310   118169852.492       -1214.517          47.000  
G24  22301925.993   117197480.712         654.414          47.000  
G12  27102621.125   142425233.925        2773.297          36.000  
J 1  40840731.880   214619488.307        -205.542          44.000  
J 3  39884438.966                       -1040.966          23.000  
G10  27264512.890   143275973.060        2747.473          37.000  
G 5  25493701.533   133970320.373       -3877.881          42.000  
G20  23838799.462   125273737.224        2026.746          45.000  
J 2  38996042.924   204925660.875        -540.835          44.000  
G13  24222749.949   127291490.268       -2863.043          45.000  
G18  23839733.487   125278703.111       -1657.842          44.000  
J 7  39352150.124   206796951.626        -698.568          38.000  
> 2020 11  5  4 51 25.0070000  0 14                     
G28  26436116.573   138922759.958       -1841.294          39.000  
G23  24245381.452   127410354.747        2105.968          43.000  
G15  22487193.471   118171067.293       -1215.145          47.000  
G24  22301801.527   117196826.757         653.300          47.000  
G12  27102093.241   142422460.255        2773.421          36.000  
J 1  40840771.085   214619693.939        -205.988          44.000  
J 3  39884639.121                       -1041.040          23.000  
G10  27263990.088   143273225.975        2746.655          37.000  
G 5  25494439.614   133974198.618       -3878.857          42.000  
G20  23838413.799   125271710.855        2025.880          45.000  
J 2  38996145.922   204926201.984        -541.543          44.000  
G13  24223294.817   127294353.575       -2863.790          45.000  
G18  23840049.027   125280361.321       -1658.940          44.000  
J 7  39352283.045   206797650.102        -698.854          38.000  
> 2020 11  5  4 51 26.0070000  0 14                     
G28  26436466.990   138924601.596       -1841.927          39.000  
G23  24244980.705   127408248.849        2105.493          43.000  
G15  22487424.747   118172282.711       -1215.779          47.000  
G24  22301677.234   117196173.716         652.704          47.000  
G12  27101565.381   142419686.774        2772.950          36.000  
J 1  40840810.327   214619899.839        -206.061          44.000  
J 3  39884838.510                       -1040.892          22.000  
G10  27263467.412   143270479.178        2746.721          37.000  
G 5  25495177.755   133978077.414       -3879.066          42.000  
G20  23838028.399   125269685.140        2025.395          45.000  
J 2  38996249.008   204926743.491        -541.724          44.000  
G13  24223839.747   127297217.310       -2863.929          45.000  
G18  23840364.718   125282020.464       -1659.706          44.000  
J 7  39352416.021   206798348.919        -699.191          38.000  
> 2020 11  5  4 51 27.0070000  0 14                     
G28  26436817.642   138926444.058       -1843.431          39.000  
G23  24244580.102   127406143.482        2104.789          44.000  
G15  22487656.198   118173498.698       -1216.431          47.000  
G24  22301553.140   117195521.537         651.473          47.000  
G12  27101037.529   142416913.406        2773.260          36.000  
J 1  40840849.534   214620105.977        -206.689          44.000  
J 3  39885037.268                       -1042.426          22.000  
G10  27262944.763   143267732.633        2746.465          37.000  
G 5  25495915.945   133981956.745       -3879.848          42.000  
G20  23837643.014   125267660.039        2024.437          45.000  
J 2  38996352.087   204927285.392        -542.409          44.000  
G13  24224384.833   127300081.446       -2864.634          45.000  
G18  23840680.620   125283680.505       -1660.722          44.000  
J 7  39352549.065   206799048.013        -699.632          38.000  
> 2020 11  5  4 51 28.0070000  0 14                     
G28  26437168.344   138928287.330       -1843.486          39.000  
G23  24244179.551   127404038.711        2104.525          44.000  
G15  22487887.686   118174715.338       -1216.637          47.000  
G24  22301429.225   117194870.286         650.926          47.000  
G12  27100509.872   142414140.276        2773.010          37.000  
J 1  40840888.906   214620312.382        -206.354          44.000  
J 3  39885232.960                       -1041.924          22.000  
G10  27262422.189   143264986.444        2746.066          37.000  
G 5  25496654.292   133985836.664       -3880.067          42.000  
G20  23837257.798   125265635.612        2024.170          45.000  
J 2  38996455.408   204927827.729        -542.499          44.000  
G13  24224930.045   127302946.046       -2864.682          45.000  
G18  23840996.713   125285341.509       -1661.320          44.000  
J 7  39352682.066   206799747.466        -699.709          38.000  
> 2020 11  5  4 51 29.0070000  0 14                     
G28  26437519.271   138930130.947       -1843.854          39.000  
G23  24243779.096   127401933.969        2104.656          44.000  
G15  22488119.252   118175932.025       -1216.730          47.000  
G24  22301305.420   117194219.381         650.669          47.000  
G12  27099982.182   142411366.747        2773.996          37.000  
J 1  40840928.178   214620518.526        -206.091          44.000  
J 3  39885428.749                       -1040.920          21.000  
G10  27261899.493   143262240.003        2746.486          37.000  
G 5  25497392.597   133989716.603       -3880.055          42.000  
G20  23836872.474   125263611.299        2024.096          45.000  
J 2  38996558.576   204928369.941        -542.453          44.000  
G13  24225475.190   127305810.530       -2864.501          45.000  
G18  23841312.880   125287002.912       -1661.585          44.000  
J 7  39352815.085   206800446.699        -699.383          38.000  
> 2020 11  5  4 51 30.0070000  0 14                     
G28  26437870.201   138931975.148       -1844.269          39.000  
G23  24243378.673   127399829.559        2104.433          44.000  
G15  22488350.820   118177149.095       -1217.137          47.000  
G24  22301181.746   117193569.135         649.978          47.000  
G12  27099454.446   142408593.175        2773.431          37.000  
J 1  40840967.361   214620724.677        -206.049          44.000  
J 3  39885625.731                       -1042.076          21.000  
G10  27261376.829   143259493.612        2746.434          37.000  
G 5  25498130.915   133993596.851       -3880.254          42.000  
G20  23836487.309   125261587.387        2023.858          45.000  
J 2  38996661.810   204928912.311        -542.438          44.000  
G13  24226020.392   127308675.209       -2864.793          45.000  
G18  23841629.159   125288665.010       -1662.391          44.000  
J 7  39352948.131   206801146.008        -699.307          38.000  
> 2020 11  5  4 51 31.0070000  0 14                     
G28  26438221.272   138933819.965       -1844.788          39.000  
G23  24242978.267   127397725.500        2104.030          44.000  
G15  22488582.464   118178366.548       -1217.727          47.000  
G24  22301058.141   117192919.548         649.371          47.000  
G12  27098926.557   142405819.514        2774.188          38.000  
J 1  40841006.582   214620930.874        -206.171          44.000  
J 3  39885822.799                3      -1041.799          20.000  
G10  27260854.263   143256747.296        2746.501          37.000  
G 5  25498869.342   133997477.442       -3880.423          42.000  
G20  23836102.378   125259563.908        2023.348          45.000  
J 2  38996765.057   204929454.864        -542.533          44.000  
G13  24226565.558   127311540.077       -2864.844          45.000  
G18  23841945.608   125290327.825       -1663.106          45.000  
J 7  39353081.137   206801845.436        -699.238          38.000  
> 2020 11  5  4 51 32.0070000  0 14                     
G28  26438572.361   138935665.277       -1845.569          39.000  
G23  24242577.865   127395621.660        2103.601          44.000  
G15  22488814.158   118179584.243       -1217.914          47.000  
G24  22300934.616   117192270.509         648.505          47.000  
G12  27098398.792   142403045.700        2774.066          38.000  
J 1  40841045.759   214621136.994        -206.329          44.000  
J 3  39886019.722                3      -1048.264          20.000  
G10  27260331.592   143254000.928        2746.526          36.000  
G 5  25499607.822   134001358.248       -3880.932          42.000  
G20  23835717.329   125257540.728        2022.764          45.000  
J 2  38996868.266   204929997.491        -542.817          44.000  
G13  24227110.707   127314405.034       -2865.055          45.000  
G18  23842262.180   125291991.216       -1663.881          45.000  
J 7  39353214.292   206802544.840        -699.796          38.000  
> 2020 11  5  4 51 33.0070000  0 14                     
G28  26438923.751   138937511.288       -1846.125          39.000  
G23  24242177.559   127393518.246        2103.427          44.000  
G15  22489046.108   118180802.424       -1218.300          47.000  
G24  22300811.224   117191622.228         648.112          47.000  
G12  27097871.097   142400271.934        2773.437          38.000  
J 1  40841085.033   214621343.222        -206.091          44.000  
J 3  39886216.662                3      -1044.411          19.000  
G10  27259809.021   143251254.739        2746.282          36.000  
G 5  25500346.423   134005239.466       -3881.338          42.000  
G20  23835332.434   125255518.062        2022.592          45.000  
J 2  38996971.510   204930540.394        -542.865          44.000  
G13  24227655.919   127317270.297       -2865.145          45.000  
G18  23842578.901   125293655.403       -1664.315          44.000  
J 7  39353347.363   206803244.408        -699.365          38.000  
> 2020 11  5  4 51 34.0070000  0 14                     
G28  26439275.116   138939357.776       -1846.979          39.000  
G23  24241777.340   127391415.046        2103.116          44.000  
G15  22489277.885   118182020.834       -1218.574          47.000  
G24  22300688.137   117190974.477         647.501          47.000  
G12  27097343.238   142397497.955        2773.526          38.000  
J 1  40841124.254   214621549.353        -206.165          44.000  
J 3  39886413.479                3      -1045.548          19.000  
G10  27259286.356   143248508.464        2746.365          36.000  
G 5  25501085.053   134009120.869       -3881.391          42.000  
G20  23834947.630   125253495.681        2022.193          45.000  
J 2  38997074.849   204931083.331        -542.917          44.000  
G13  24228201.120   127320135.619       -2865.416          45.000  
G18  23842895.664   125295320.171       -1665.206          44.000  
J 7  39353480.478   206803943.946        -699.712          38.000  
> 2020 11  5  4 51 35.0070000  0 14                     
G28  26439626.473   138941204.807       -1847.408          39.000  
G23  24241377.098   127389312.093        2102.836          44.000  
G15  22489509.755   118183239.547       -1218.810          47.000  
G24  22300564.910   117190327.326         646.857          47.000  
G12  27096815.250   142394723.812        2773.981          38.000  
J 1  40841163.429   214621755.431        -206.085          44.000  
J 3  39886611.706                3      -1039.508          19.000  
G10  27258763.766   143245762.179        2746.452          36.000  
G 5  25501823.737   134013002.530       -3881.602          42.000  
G20  23834562.857   125251473.636        2021.894          45.000  
J 2  38997178.136   204931626.376        -543.132          44.000  
G13  24228746.383   127323001.068       -2865.632          45.000  
G18  23843212.516   125296985.545       -1665.673          44.000  
J 7  39353613.649   206804643.488        -699.417          38.000  
> 2020 11  5  4 51 36.0070000  0 14                     
G28  26439977.996   138943052.353       -1847.877          39.000  
G23  24240976.933   127387209.408        2102.635          44.000  
G15  22489741.672   118184458.562       -1219.178          47.000  
G24  22300441.842   117189680.765         646.287          47.000  
G12  27096287.382   142391949.530        2774.745          38.000  
J 1  40841202.608   214621961.455        -205.951          44.000  
J 3  39886808.534                3      -1037.537          19.000  
G10  27258241.099   143243015.906        2746.549          36.000  
G 5  25502562.486   134016884.443       -3881.848          42.000  
G20  23834178.137   125249451.935        2021.478          45.000  
J 2  38997281.537   204932169.519        -543.118          44.000  
G13  24229291.571   127325866.623       -2865.569          45.000  
G18  23843529.601   125298651.548       -1666.222          44.000  
J 7  39353746.792   206805343.052        -699.452          38.000  
> 2020 11  5  4 51 37.0070000  0 14                     
G28  26440329.558   138944900.279       -1848.275          39.000  
G23  24240576.844   127385106.847        2102.388          44.000  
G15  22489973.689   118185677.727       -1219.356          47.000  
G24  22300318.876   117189034.669         645.750          47.000  
G12  27095759.456   142389175.000        2774.677          38.000  
J 1  40841241.759   214622167.300        -205.768          44.000  
J 3  39887007.693                3      -1045.573          18.000  
G10  27257718.416   143240269.468        2746.169          36.000  
G 5  25503301.152   134020766.468       -3882.074          42.000  
G20  23833793.488   125247430.422        2021.272          45.000  
J 2  38997384.885   204932712.626        -543.248          44.000  
G13  24229836.888   127328732.177       -2865.746          45.000  
G18  23843846.711   125300318.050       -1666.865          44.000  
J 7  39353879.795   206806042.494        -699.501          38.000  
> 2020 11  5  4 51 38.0070000  0 14                     
G28  26440681.377   138946748.810       -1849.381          39.000  
G23  24240176.797   127383004.608        2101.696          43.000  
G15  22490205.753   118186897.251       -1220.071          46.000  
G24  22300196.041   117188389.223         644.768          47.000  
G12  27095231.472   142386400.357        2774.489          37.000  
J 1  40841280.870   214622373.154        -206.311          43.000  
J 3  39887206.311                3      -1036.808          18.000  
G10  27257195.736   143237523.075        2746.067          36.000  
G 5  25504039.947   134024648.792       -3882.692          42.000  
G20  23833408.881   125245409.314        2020.467          44.000  
J 2  38997488.263   204933255.890        -543.680          43.000  
G13  24230382.248   127331597.898       -2866.140          45.000  
G18  23844163.983   125301985.221       -1667.877          44.000  
J 7  39354012.850   206806742.007        -699.622          37.000  
> 2020 11  5  4 51 39.0070000  0 14                     
G28  26441033.347   138948598.069       -1849.312          39.000  
G23  24239776.850   127380902.839        2101.831          44.000  
G15  22490437.890   118188117.292       -1219.950          48.000  
G24  22300073.308   117187744.620         644.554          47.000  
G12  27094703.441   142383625.817        2775.084          38.000  
J 1  40841320.035   214622579.176        -205.713          45.000  
J 3  39887403.890                3      -1039.564          19.000  
G10  27256673.204   143234776.911        2746.346          37.000  
G 5  25504778.770   134028531.594       -3882.719          42.000  
G20  23833024.396   125243388.762        2020.579          45.000  
J 2  38997591.758   204933799.480        -543.442          44.000  
G13  24230927.610   127334463.971       -2866.037          45.000  
G18  23844481.328   125303653.238       -1668.017          44.000  
J 7  39354145.979   206807441.747        -699.202          38.000  
> 2020 11  5  4 51 40.0070000  0 14                     
G28  26441385.393   138950448.065       -1850.548          39.000  
G23  24239377.010   127378801.513        2101.194          44.000  
G15  22490670.170   118189337.812       -1220.833          47.000  
G24  22299950.807   117187100.781         643.381          47.000  
G12  27094175.483   142380851.343        2774.358          38.000  
J 1  40841359.183   214622785.344        -206.293          44.000  
J 3  39887602.484                3      -1044.457          19.000  
G10  27256150.661   143232030.891        2746.222          37.000  
G 5  25505517.697   134032414.816       -3883.621          42.000  
G20  23832639.977   125241368.731        2019.743          45.000  
J 2  38997695.287   204934343.347        -544.159          44.000  
G13  24231473.032   127337330.337       -2866.542          45.000  
G18  23844798.887   125305322.072       -1669.451          44.000  
J 7  39354279.128   206808141.691        -699.914          38.000  
> 2020 11  5  4 51 41.0070000  0 14                     
G28  26441737.538   138952298.637       -1850.924          39.000  
G23  24238977.272   127376700.525        2100.851          44.000  
G15  22490902.467   118190558.707       -1221.089          47.000  
G24  22299828.438   117186457.602         642.712          47.000  
G12  27093647.496   142378076.789        2774.025          38.000  
J 1  40841398.404   214622991.528        -206.171          44.000  
J 3  39887800.935                3      -1042.420          19.000  
G10  27255628.126   143229284.976        2745.608          37.000  
G 5  25506256.704   134036298.361       -3883.698          42.000  
G20  23832255.593   125239349.111        2019.445          45.000  
J 2  38997798.758   204934887.397        -544.152          44.000  
G13  24232018.533   127340196.906       -2866.756          45.000  
G18  23845116.613   125306991.585       -1669.974          44.000  
J 7  39354412.374   206808841.726        -700.391          38.000  
> 2020 11  5  4 51 42.0070000  0 14                     
G28  26442089.797   138954149.667       -1851.429          39.000  
G23  24238577.502   127374599.722        2100.538          44.000  
G15  22491134.797   118191779.816       -1221.260          47.000  
G24  22299706.159   117185814.933         642.364          47.000  
G12  27093119.438   142375302.006        2774.736          38.000  
J 1  40841437.628   214623197.581        -206.171          44.000  
J 3  39887999.302                3      -1033.435          19.000  
G10  27255105.515   143226538.918        2746.121          37.000  
G 5  25506995.759   134040182.077       -3883.956          42.000  
G20  23831871.377   125237329.762        2018.973          45.000  
J 2  38997902.236   204935431.457        -544.310          44.000  
G13  24232564.106   127343063.508       -2866.692          45.000  
G18  23845434.490   125308661.644       -1670.479          44.000  
J 7  39354545.508   206809541.664        -700.077          38.000  
> 2020 11  5  4 51 43.0070000  0 14                     
G28  26442442.234   138956001.330       -1851.964          39.000  
G23  24238177.842   127372499.300        2100.223          44.000  
G15  22491367.171   118193001.354       -1221.847          47.000  
G24  22299583.992   117185173.002         641.482          47.000  
G12  27092591.437   142372527.203        2775.048          38.000  
J 1  40841476.760   214623403.716        -206.207          44.000  
J 3  39888196.122                3      -1044.608          19.000  
G10  27254583.040   143223793.019        2745.628          37.000  
G 5  25507734.808   134044066.163       -3884.217          42.000  
G20  23831487.308   125235310.868        2018.485          45.000  
J 2  38998005.739   204935975.760        -544.663          44.000  
G13  24233109.724   127345930.356       -2867.171          45.000  
G18  23845752.447   125310332.453       -1671.169          44.000  
J 7  39354678.753   206810241.763        -700.360          38.000  
> 2020 11  5  4 51 44.0070000  0 14                     
G28  26442794.617   138957853.581       -1852.589          39.000  
G23  24237778.194   127370399.158        2099.949          44.000  
G15  22491599.738   118194223.209       -1222.097          47.000  
G24  22299461.872   117184531.666         640.995          47.000  
G12  27092063.264   142369752.282        2774.962          38.000  
J 1  40841515.965   214623609.810        -205.957          44.000  
J 3  39888393.062                3      -1041.484          18.000  
G10  27254060.568   143221047.105        2745.920          37.000  
G 5  25508474.085   134047950.519       -3884.479          42.000  
G20  23831103.147   125233292.332        2018.448          45.000  
J 2  38998109.293   204936520.167        -544.542          44.000  
G13  24233655.355   127348797.332       -2866.900          45.000  
G18  23846070.442   125312003.905       -1671.687          44.000  
J 7  39354811.898   206810941.896        -700.260          38.000  
> 2020 11  5  4 51 45.0070000  0 14                     
G28  26443147.109   138959706.169       -1852.485          39.000  
G23  24237378.546   127368299.118        2099.941          43.000  
G15  22491832.303   118195445.207       -1222.095          47.000  
G24  22299339.828   117183890.746         640.703          47.000  
G12  27091535.193   142366977.073        2775.504          38.000  
J 1  40841555.120   214623815.721        -205.939          44.000  
J 3  39888592.117                3      -1036.193          18.000  
G10  27253537.969   143218301.036        2746.182          37.000  
G 5  25509213.276   134051834.956       -3884.362          42.000  
G20  23830719.121   125231273.991        2018.254          45.000  
J 2  38998212.909   204937064.522        -544.278          44.000  
G13  24234200.836   127351664.282       -2866.955          45.000  
G18  23846388.657   125313675.841       -1672.071          44.000  
J 7  39354945.084   206811641.863        -699.878          38.000  
> 2020 11  5  4 51 46.0070000  0 14                     
G28  26443499.779   138961559.282       -1853.472          39.000  
G23  24236978.883   127366199.310        2099.564          44.000  
G15  22492064.945   118196667.458       -1222.314          47.000  
G24  22299218.023   117183250.397         640.017          47.000  
G12  27091007.070   142364201.710        2775.512          38.000  
J 1  40841594.285   214624021.532        -206.006          44.000  
J 3  39888789.038                3      -1043.030          18.000  
G10  27253015.383   143215554.900        2746.149          37.000  
G 5  25509952.496   134055719.627       -3884.957          42.000  
G20  23830335.116   125229255.959        2017.847          45.000  
J 2  38998316.534   204937608.952        -544.427          44.000  
G13  24234746.437   127354531.311       -2867.066          45.000  
G18  23846706.912   125315348.352       -1672.749          44.000  
J 7  39355078.317   206812341.822        -699.650          38.000  
> 2020 11  5  4 51 47.0070000  0 14                     
G28  26443852.514   138963413.105       -1853.948          39.000  
G23  24236579.416   127364099.956        2099.177          44.000  
G15  22492297.673   118197890.222       -1223.017          47.000  
G24  22299096.355   117182610.830         639.244          47.000  
G12  27090478.931   142361426.414        2775.528          38.000  
J 1  40841633.509   214624227.501        -206.030          44.000  
J 3  39888987.197                3      -1045.860          18.000  
G10  27252492.809   143212808.998        2745.750          37.000  
G 5  25510691.676   134059604.720       -3885.347          42.000  
G20  23829951.196   125227238.462        2017.244          45.000  
J 2  38998420.223   204938153.680        -544.699          44.000  
G13  24235292.119   127357398.672       -2867.587          45.000  
G18  23847025.353   125317021.693       -1673.757          44.000  
J 7  39355211.569   206813042.004        -700.045          38.000  
> 2020 11  5  4 51 48.0070000  0 14                     
G28  26444205.441   138965267.519       -1854.963          39.000  
G23  24236179.997   127362000.908        2098.817          44.000  
G15  22492530.380   118199113.306       -1223.254          47.000  
G24  22298974.859   117181971.893         638.619          47.000  
G12  27089950.737   142358650.966        2775.829          38.000  
J 1  40841672.632   214624433.457        -205.969          44.000  
J 3  39889187.803                3      -1043.290          18.000  
G10  27251970.234   143210063.101        2745.630          37.000  
G 5  25511431.050   134063490.113       -3885.646          42.000  
G20  23829567.286   125225221.338        2016.840          45.000  
J 2  38998523.877   204938698.553        -545.074          44.000  
G13  24235837.852   127360266.179       -2867.730          45.000  
G18  23847343.970   125318695.693       -1674.421          44.000  
J 7  39355344.808   206813742.235        -700.208          38.000  
> 2020 11  5  4 51 49.0070000  0 14                     
G28  26444558.483   138967122.484       -1854.927          39.000  
G23  24235780.705   127359902.172        2098.711          44.000  
G15  22492763.278   118200336.751       -1223.412          47.000  
G24  22298853.445   117181333.600         638.030          47.000  
G12  27089422.508   142355875.480        2775.615          38.000  
J 1  40841711.732   214624639.418        -205.841          44.000  
J 3  39889386.775                3      -1034.129          17.000  
G10  27251447.648   143207317.223        2746.090          37.000  
G 5  25512170.469   134067375.809       -3885.631          42.000  
G20  23829183.557   125223204.612        2016.589          45.000  
J 2  38998627.568   204939243.574        -545.094          44.000  
G13  24236383.459   127363133.862       -2867.596          45.000  
G18  23847662.670   125320370.375       -1675.267          44.000  
J 7  39355478.133   206814442.549        -700.333          38.000  
> 2020 11  5  4 51 50.0070000  0 14                     
G28  26444911.502   138968977.821       -1855.769          39.000  
G23  24235381.352   127357803.522        2098.303          44.000  
G15  22492996.109   118201560.319       -1223.867          47.000  
G24  22298732.105   117180695.734         637.360          47.000  
G12  27088894.211   142353099.679        2775.323          37.000  
J 1  40841750.852   214624845.157        -205.859          44.000  
J 3  39889583.606                3      -1048.014          17.000  
G10  27250925.186   143204571.190        2745.900          37.000  
G 5  25512909.964   134071261.581       -3885.982          42.000  
G20  23828799.831   125221188.043        2016.341          45.000  
J 2  38998731.298   204939788.520        -545.290          44.000  
G13  24236929.139   127366001.504       -2867.986          45.000  
G18  23847981.446   125322045.486       -1675.682          44.000  
J 7  39355611.400   206815142.677        -700.501          38.000  
> 2020 11  5  4 51 51.0070000  0 14                     
G28  26445264.643   138970833.767       -1856.112          39.000  
G23  24234982.018   127355705.219        2098.505          44.000  
G15  22493229.008   118202784.272       -1223.926          48.000  
G24  22298610.814   117180058.543         637.142          48.000  
G12  27088365.921   142350323.825        2776.417          38.000  
J 1  40841790.104   214625050.924        -205.408          44.000  
J 3  39889781.198                3      -1048.082          16.000  
G10  27250402.729   143201825.226        2746.101          37.000  
G 5  25513649.506   134075147.684       -3885.979          42.000  
G20  23828416.195   125219171.918        2016.203          45.000  
J 2  38998834.957   204940333.652        -544.924          44.000  
G13  24237474.865   127368869.339       -2867.647          46.000  
G18  23848300.306   125323721.310       -1675.606          44.000  
J 7  39355744.624   206815842.928        -700.187          38.000  
> 2020 11  5  4 51 52.0070000  0 14                     
G28  26445617.965   138972690.220       -1856.814          39.000  
G23  24234582.858   127353607.175        2097.709          44.000  
G15  22493462.065   118204008.494       -1224.513          47.000  
G24  22298489.574   117179421.918         636.234          47.000  
G12  27087837.596   142347547.796        2775.883          38.000  
J 1  40841829.279   214625256.643        -205.768          44.000  
J 3  39889979.820                3      -1047.857          17.000  
G10  27249880.227   143199079.240        2746.155          37.000  
G 5  25514389.009   134079034.019       -3886.425          42.000  
G20  23828032.547   125217156.100        2015.510          45.000  
J 2  38998938.710   204940878.860        -545.097          44.000  
G13  24238020.714   127371737.280       -2867.914          45.000  
G18  23848619.303   125325397.762       -1676.799          44.000  
J 7  39355877.982   206816543.126        -700.169          38.000  
> 2020 11  5  4 51 53.0070000  0 14                     
G28  26445971.336   138974547.137       -1857.184          39.000  
G23  24234183.595   127351509.289        2097.769          44.000  
G15  22493695.033   118205232.941       -1224.702          47.000  
G24  22298368.531   117178785.801         635.895          47.000  
G12  27087309.172   142344771.556        2776.402          38.000  
J 1  40841868.500   214625462.228        -205.774          44.000  
J 3  39890175.875                3      -1036.092          15.000  
G10  27249357.726   143196333.162        2746.243          37.000  
G 5  25515128.574   134082920.533       -3886.627          42.000  
G20  23827649.018   125215140.549        2015.276          45.000  
J 2  38999042.408   204941424.108        -545.140          44.000  
G13  24238566.400   127374605.266       -2867.983          45.000  
G18  23848938.498   125327074.738       -1677.165          44.000  
J 7  39356011.202   206817243.300        -700.157          38.000  
> 2020 11  5  4 51 54.0070000  0 14                     
G28  26446324.804   138976404.379       -1857.291          39.000  
G23  24233784.395   127349411.489        2097.944          44.000  
G15  22493927.994   118206457.492       -1224.463          47.000  
G24  22298247.616   117178150.088         635.594          47.000  
G12  27086780.676   142341995.020        2776.488          38.000  
J 1  40841907.541   214625667.565        -204.919          44.000  
J 3  39890371.285                3      -1025.335          12.000  
G10  27248835.118   143193586.909        2746.031          37.000  
G 5  25515868.255   134086807.093       -3886.499          42.000  
G20  23827265.565   125213125.146        2015.349          45.000  
J 2  38999146.150   204941969.269        -544.939          44.000  
G13  24239112.160   127377473.192       -2867.844          45.000  
G18  23849257.750   125328752.152       -1677.361          44.000  
J 7  39356144.355   206817943.299        -700.047          38.000  
> 2020 11  5  4 51 55.0070000  0 14                     
G28  26446678.255   138978261.854       -1857.719          39.000  
G23  24233385.171   127347313.657        2097.629          44.000  
G15  22494160.983   118207682.053       -1224.691          47.000  
G24  22298126.629   117177514.662         635.134          47.000  
G12  27086252.127   142339217.995        2777.488          38.000  
J 1  40841946.562   214625872.562        -204.974          44.000  
J 3  39890569.127                3      -1047.886          12.000  
G10  27248312.451   143190840.309        2746.820          37.000  
G 5  25516607.831   134090693.600       -3886.599          43.000  
G20  23826881.970   125211109.781        2015.305          45.000  
J 2  38999249.778   204942514.224        -544.888          44.000  
G13  24239657.823   127380340.921       -2867.607          45.000  
G18  23849577.030   125330429.901       -1678.015          44.000  
J 7  39356277.513   206818642.982        -699.204          38.000  
> 2020 11  5  4 51 56.0070000  0 14                     
G28  26447031.931   138980119.825       -1858.279          40.000  
G23  24232985.904   127345216.036        2097.621          44.000  
G15  22494394.009   118208906.868       -1224.939          48.000  
G24  22298005.824   117176879.796         634.631          48.000  
G12  27085723.551   142336440.818        2777.582          39.000  
J 1  40841985.595   214626077.474        -204.785          44.000  
J 3  39890767.379                3      -1049.689          13.000  
G10  27247789.821   143188093.700        2746.411          38.000  
G 5  25517347.489   134094580.331       -3886.816          43.000  
G20  23826498.483   125209094.732        2014.963          46.000  
J 2  38999353.498   204943059.253        -545.119          44.000  
G13  24240203.555   127383208.753       -2867.901          46.000  
G18  23849896.330   125332108.224       -1678.529          45.000  
J 7  39356410.682   206819342.687        -699.599          38.000  
> 2020 11  5  4 51 57.0070000  0 14                     
G28  26447385.553   138981978.481       -1858.552          39.000  
G23  24232586.825   127343118.878        2096.815          44.000  
G15  22494627.071   118210132.163       -1225.434          48.000  
G24  22297885.265   117176245.717         633.830          48.000  
G12  27085194.946   142333663.703        2777.190          39.000  
J 1  40842024.572   214626282.517        -204.950          44.000  
J 3  39890967.018                3      -1038.997          13.000  
G10  27247267.081   143185347.240        2746.312          38.000  
G 5  25518087.264   134098467.470       -3887.041          43.000  
G20  23826115.189   125207080.203        2014.396          45.000  
J 2  38999457.260   204943604.556        -545.229          44.000  
G13  24240749.404   127386076.885       -2868.112          46.000  
G18  23850215.944   125333787.365       -1679.389          45.000  
J 7  39356543.886   206820042.564        -700.156          38.000  
> 2020 11  5  4 51 58.0070000  0 14                     
G28  26447739.245   138983837.693       -1859.410          39.000  
G23  24232187.833   127341021.972        2096.583          44.000  
G15  22494860.282   118211357.759       -1225.903          47.000  
G24  22297764.646   117175612.204         633.124          47.000  
G12  27084666.503   142330886.460        2777.161          38.000  
J 1  40842063.634   214626487.519        -205.139          44.000  
J 3  39891162.042                3      -1025.394          12.000  
G10  27246744.428   143182600.750        2746.908          37.000  
G 5  25518827.105   134102354.880       -3887.752          43.000  
G20  23825731.924   125205066.009        2013.917          45.000  
J 2  38999561.030   204944149.963        -545.485          44.000  
G13  24241295.122   127388945.138       -2868.535          45.000  
G18  23850535.531   125335467.124       -1680.233          45.000  
J 7  39356677.124   206820742.440        -699.865          38.000  
> 2020 11  5  4 51 59.0070000  0 14                     
G28  26448093.136   138985697.345       -1860.105          39.000  
G23  24231788.827   127338925.217        2096.537          44.000  
G15  22495093.522   118212583.552       -1226.014          47.000  
G24  22297644.165   117174979.202         632.582          47.000  
G12  27084137.925   142328108.939        2777.386          38.000  
J 1  40842102.635   214626692.367        -204.968          44.000  
G10  27246221.861   143179854.203        2746.250          37.000  
G 5  25519566.795   134106242.424       -3887.845          43.000  
G20  23825348.672   125203052.061        2013.699          45.000  
J 2  38999664.929   204944695.383        -545.707          44.000  
G13  24241840.864   127391813.418       -2868.637          45.000  
G18  23850855.339   125337147.407       -1680.735          45.000  
J 7  39356810.332   206821442.261        -700.220          38.000  
J 3                                                                
> 2020 11  5  4 52  0.0070000  0 14                     
G28  26448447.064   138987557.574       -1860.515          39.000  
G23  24231389.884   127336828.808        2096.179          44.000  
G15  22495326.850   118213809.715       -1226.374          47.000  
G24  22297523.788   117174346.851         631.993          47.000  
G12  27083609.352   142325331.376        2777.289          39.000  
J 1  40842141.507   214626897.233        -204.919          44.000  
G10  27245699.165   143177107.698        2746.283          38.000  
G 5  25520306.673   134110130.293       -3888.160          43.000  
G20  23824965.509   125201038.515        2013.368          45.000  
J 2  38999768.711   204945240.960        -545.717          44.000  
G13  24242386.730   127394681.872       -2868.452          45.000  
G18  23851175.141   125338828.373       -1681.310          45.000  
J 7  39356943.622   206822142.141        -699.780          38.000  
J 3                                                                
> 2020 11  5  4 52  1.0070000  0 14                     
G28  26448801.167   138989418.325       -1860.679          39.000  
G23  24230990.894   127334732.649        2096.081          44.000  
G15  22495560.232   118215036.171       -1226.681          47.000  
G24  22297403.592   117173715.077         631.561          47.000  
G12  27083080.712   142322553.630        2778.184          39.000  
J 1  40842180.494   214627102.048        -204.749          44.000  
G10  27245176.527   143174361.148        2746.853          38.000  
G 5  25521046.612   134114018.407       -3888.479          43.000  
G20  23824582.431   125199025.325        2012.964          45.000  
J 2  38999872.600   204945786.630        -545.718          44.000  
G13  24242932.634   127397550.437       -2868.516          45.000  
G18  23851495.115   125340509.967       -1681.978          45.000  
J 7  39357076.772   206822842.036        -699.985          38.000  
J 3                                                                
> 2020 11  5  4 52  2.0070000  0 14                     
G28  26449155.263   138991279.278       -1861.085          39.000  
G23  24230591.944   127332636.410        2096.296          43.000  
G15  22495793.615   118216262.565       -1226.319          47.000  
G24  22297283.433   117173083.532         631.499          47.000  
G12  27082552.096   142319775.451        2778.655          38.000  
J 1  40842219.413   214627306.476        -204.395          44.000  
G10  27244653.861   143171614.286        2747.154          38.000  
G 5  25521786.437   134117906.409       -3887.773          43.000  
G20  23824199.289   125197012.103        2013.334          45.000  
J 2  38999976.407   204946332.052        -545.030          44.000  
G13  24243478.524   127400418.788       -2868.153          45.000  
G18  23851815.212   125342191.825       -1681.876          44.000  
J 7  39357209.870   206823541.571        -699.186          38.000  
J 3                                                                
> 2020 11  5  4 52  3.0070000  0 14                     
G28  26449509.325   138993140.010       -1860.098          39.000  
G23  24230193.011   127330539.713        2097.012          44.000  
G15  22496026.850   118217488.549       -1225.659          47.000  
G24  22297163.150   117172451.886         631.879          47.000  
G12  27082023.088   142316996.389        2779.352          39.000  
J 1  40842258.210   214627510.127        -203.198          44.000  
G10  27244130.950   143168866.677        2748.299          38.000  
G 5  25522526.320   134121793.957       -3887.138          43.000  
G20  23823816.146   125194998.526        2013.957          45.000  
J 2  39000080.100   204946876.876        -544.488          44.000  
G13  24244024.245   127403286.544       -2867.262          45.000  
G18  23852135.318   125343873.593       -1681.551          44.000  
J 7  39357342.944   206824240.446        -698.770          38.000  
J 3                                                                
> 2020 11  5  4 52  4.0070000  0 14                     
G28  26449863.400   138995000.975       -1860.848          39.000  
G23  24229794.008   127328442.961        2096.803          44.000  
G15  22496260.204   118218714.508       -1226.064          47.000  
G24  22297042.991   117171820.507         631.197          47.000  
G12  27081494.234   142314216.892        2779.478          39.000  
J 1  40842296.889   214627713.401        -203.058          44.000  
G10  27243608.020   143166118.728        2748.323          38.000  
G 5  25523265.995   134125681.435       -3887.619          42.000  
G20  23823432.989   125192984.969        2013.564          45.000  
J 2  39000183.618   204947421.465        -544.496          44.000  
G13  24244569.878   127406154.105       -2867.360          45.000  
G18  23852455.387   125345555.652       -1682.202          44.000  
J 7  39357475.933   206824938.975        -698.123          38.000  
J 3                                                                
> 2020 11  5  4 52  5.0070000  0 14                     
G28  26450217.577   138996862.013       -1861.117          39.000  
G23  24229395.028   127326345.982        2097.060          44.000  
G15  22496493.527   118219940.288       -1225.858          47.000  
G24  22296922.866   117171189.268         631.081          47.000  
G12  27080965.223   142311436.762        2780.367          39.000  
J 1  40842335.443   214627916.159        -202.509          44.000  
G10  27243084.989   143163370.317        2748.472          38.000  
G 5  25524005.655   134129568.665       -3887.203          43.000  
G20  23823049.809   125190971.271        2013.570          45.000  
J 2  39000287.214   204947965.683        -544.152          44.000  
G13  24245115.466   127409021.309       -2867.050          45.000  
G18  23852775.659   125347237.865       -1682.238          44.000  
J 7  39357608.711   206825637.060        -698.047          38.000  
J 3                                                                
> 2020 11  5  4 52  6.0070000  0 14                     
G28  26450571.771   138998723.322       -1861.721          39.000  
G23  24228996.003   127324249.041        2096.936          44.000  
G15  22496726.803   118221166.125       -1226.051          47.000  
G24  22296802.826   117170558.375         630.651          47.000  
G12  27080436.102   142308656.258        2780.819          39.000  
J 1  40842373.875   214628118.636        -202.472          44.000  
G10  27242562.009   143160621.656        2748.516          38.000  
G 5  25524745.405   134133455.922       -3887.397          43.000  
G20  23822666.521   125188957.676        2013.399          45.000  
J 2  39000390.792   204948509.761        -544.118          44.000  
G13  24245661.030   127411888.390       -2866.989          45.000  
G18  23853095.735   125348920.475       -1682.930          44.000  
J 7  39357741.452   206826334.916        -697.937          38.000  
J 3                                                                
> 2020 11  5  4 52  7.0070000  0 14                     
G28  26450925.996   139000585.012       -1862.377          39.000  
G23  24228596.957   127322152.214        2096.568          44.000  
G15  22496960.167   118222392.108       -1226.209          47.000  
G24  22296682.922   117169927.897         630.057          47.000  
G12  27079906.876   142305875.473        2780.868          39.000  
J 1  40842412.272   214628320.908        -202.393          44.000  
G10  27242038.879   143157872.818        2748.762          38.000  
G 5  25525485.178   134137343.263       -3887.648          43.000  
G20  23822283.343   125186944.271        2013.157          45.000  
J 2  39000494.319   204949053.792        -544.169          44.000  
G13  24246206.553   127414755.450       -2867.265          45.000  
G18  23853416.013   125350603.559       -1683.731          44.000  
J 7  39357874.173   206827032.640        -697.821          38.000  
J 3                                                                
> 2020 11  5  4 52  8.0070000  0 14                     
G28  26451280.354   139002447.127       -1862.506          39.000  
G23  24228197.983   127320055.551        2096.643          44.000  
G15  22497193.510   118223618.291       -1226.189          47.000  
G24  22296563.085   117169297.924         629.643          48.000  
G12  27079377.507   142303094.469        2781.117          39.000  
J 1  40842450.816   214628523.045        -202.203          44.000  
G10  27241515.746   143155123.893        2748.841          37.000  
G 5  25526224.925   134141230.773       -3887.623          43.000  
G20  23821900.194   125184931.116        2013.043          45.000  
J 2  39000597.778   204949597.836        -544.146          44.000  
G13  24246752.142   127417622.532       -2867.071          45.000  
G18  23853736.429   125352287.144       -1683.865          44.000  
J 7  39358006.913   206827730.276        -697.681          38.000  
J 3                                                                
> 2020 11  5  4 52  9.0070000  0 14                     
G28  26451634.792   139004309.679       -1862.822          39.000  
G23  24227799.024   127317959.083        2096.142          44.000  
G15  22497426.874   118224844.704       -1226.785          47.000  
G24  22296443.279   117168668.475         628.988          47.000  
G12  27078848.261   142300313.256        2781.105          39.000  
J 1  40842489.219   214628725.053        -202.130          44.000  
G10  27240992.665   143152374.863        2749.287          37.000  
G 5  25526964.747   134145118.439       -3887.823          43.000  
G20  23821517.074   125182918.240        2012.498          45.000  
J 2  39000701.299   204950141.903        -544.376          44.000  
G13  24247297.743   127420489.668       -2867.207          45.000  
G18  23854056.849   125353971.289       -1684.550          44.000  
J 7  39358139.530   206828427.849        -697.568          38.000  
J 3                                                                
> 2020 11  5  4 52 10.0070000  0 14                     
G28  26451989.338   139006172.991       -1864.146          39.000  
G23  24227400.189   127315863.070        2095.624          43.000  
G15  22497660.299   118226071.614       -1227.345          47.000  
G24  22296323.602   117168039.813         628.085          47.000  
G12  27078319.019   142297532.082        2781.003          39.000  
J 1  40842527.712   214628927.208        -202.466          44.000  
G10  27240469.656   143149626.072        2748.145          37.000  
G 5  25527704.660   134149006.559       -3888.385          43.000  
G20  23821134.152   125180905.892        2011.873          45.000  
J 2  39000804.862   204950686.269        -544.805          44.000  
G13  24247843.393   127423357.119       -2867.887          45.000  
G18  23854377.502   125355656.255       -1685.473          44.000  
J 7  39358272.355   206829125.640        -698.097          38.000  
J 3                                                                
> 2020 11  5  4 52 11.0070000  0 14                     
G28  26452344.051   139008036.928       -1864.552          39.000  
G23  24227001.396   127313767.439        2095.340          44.000  
G15  22497893.796   118227298.930       -1227.425          47.000  
G24  22296204.045   117167411.855         627.670          47.000  
G12  27077789.858   142294750.916        2781.209          39.000  
J 1  40842566.330   214629129.434        -202.203          44.000  
G10  27239946.591   143146877.340        2748.631          37.000  
G 5  25528444.615   134152895.036       -3888.730          43.000  
G20  23820751.279   125178894.010        2011.617          45.000  
J 2  39000908.545   204951230.845        -544.473          44.000  
G13  24248389.120   127426224.810       -2867.712          45.000  
G18  23854698.231   125357341.976       -1686.209          44.000  
J 7  39358405.155   206829823.536        -697.336          38.000  
J 3                                                                
> 2020 11  5  4 52 12.0070000  0 14                     
G28  26452698.802   139009901.200       -1864.620          39.000  
G23  24226602.682   127311671.871        2095.459          43.000  
G15  22498127.391   118228526.362       -1227.590          47.000  
G24  22296084.624   117166784.293         627.323          47.000  
G12  27077260.577   142291969.412        2781.137          39.000  
J 1  40842604.875   214629331.419        -202.081          44.000  
G10  27239423.518   143144128.425        2748.601          37.000  
G 5  25529184.637   134156783.559       -3888.420          43.000  
G20  23820368.510   125176882.268        2011.633          45.000  
J 2  39001012.149   204951775.339        -544.508          44.000  
G13  24248934.872   127429092.430       -2867.616          45.000  
G18  23855019.155   125359028.105       -1686.382          44.000  
J 7  39358537.948   206830521.282        -697.332          38.000  
J 3                                                                
> 2020 11  5  4 52 13.0070000  0 14                     
G28  26453053.776   139011765.787       -1865.311          39.000  
G23  24226203.945   127309576.334        2095.574          44.000  
G15  22498360.959   118229753.854       -1227.418          47.000  
G24  22295965.362   117166157.064         627.059          47.000  
G12  27076731.164   142289187.520        2782.019          39.000  
J 1  40842643.175   214629533.116        -201.501          44.000  
G10  27238900.268   143141379.253        2749.072          37.000  
G 5  25529924.604   134160672.114       -3888.546          43.000  
G20  23819985.784   125174870.634        2011.578          45.000  
J 2  39001115.825   204952319.700        -544.168          44.000  
G13  24249480.544   127431959.926       -2867.378          45.000  
G18  23855340.095   125360714.629       -1686.838          44.000  
J 7  39358670.636   206831218.823        -697.230          38.000  
J 3                                                                
> 2020 11  5  4 52 14.0070000  0 14                     
G28  26453408.649   139013630.607       -1864.775          39.000  
G23  24225805.214   127307480.856        2095.357          44.000  
G15  22498594.606   118230981.430       -1227.736          47.000  
G24  22295846.033   117165530.218         626.496          47.000  
G12  27076201.798   142286405.289        2782.204          39.000  
J 1  40842681.551   214629734.556        -201.453          44.000  
G10  27238377.004   143138629.862        2749.497          37.000  
G 5  25530664.669   134164560.695       -3888.747          43.000  
G20  23819603.005   125172859.134        2011.285          45.000  
J 2  39001219.319   204952863.943        -544.310          44.000  
G13  24250026.164   127434827.343       -2867.664          45.000  
G18  23855661.102   125362401.549       -1687.096          44.000  
J 7  39358803.334   206831916.151        -697.447          38.000  
J 3                                                                
> 2020 11  5  4 52 15.0070000  0 14                     
G28  26453763.566   139015495.855       -1865.367          38.000  
G23  24225406.461   127305385.456        2095.386          43.000  
G15  22498828.279   118232209.135       -1227.845          47.000  
G24  22295726.863   117164903.804         626.123          47.000  
G12  27075672.276   142283622.769        2782.413          39.000  
J 1  40842719.900   214629935.775        -200.964          44.000  
G10  27237853.855   143135880.310        2749.575          37.000  
G 5  25531404.591   134168449.356       -3888.787          43.000  
G20  23819220.208   125170847.791        2011.424          45.000  
J 2  39001322.900   204953408.110        -543.928          44.000  
G13  24250571.883   127437694.694       -2867.363          45.000  
G18  23855982.066   125364088.936       -1687.664          44.000  
J 7  39358935.993   206832613.290        -696.907          38.000  
J 3                                                                
> 2020 11  5  4 52 16.0070000  0 14                     
G28  26454118.586   139017361.369       -1865.609          38.000  
G23  24225007.755   127303290.073        2095.099          43.000  
G15  22499061.901   118233436.875       -1227.975          47.000  
G24  22295607.817   117164277.710         625.884          47.000  
G12  27075142.729   142280839.824        2782.981          39.000  
J 1  40842758.184   214630136.678        -200.781          44.000  
G10  27237330.546   143133130.462        2749.857          37.000  
G 5  25532144.508   134172337.986       -3888.721          42.000  
G20  23818837.491   125168836.542        2011.188          45.000  
J 2  39001426.408   204953952.126        -543.801          44.000  
G13  24251117.532   127440561.902       -2867.017          45.000  
G18  23856303.216   125365776.677       -1687.976          44.000  
J 7  39359068.698   206833310.221        -697.179          38.000  
J 3                                                                
> 2020 11  5  4 52 17.0070000  0 14                     
G28  26454473.743   139019227.270       -1866.176          39.000  
G23  24224609.045   127301194.799        2095.091          43.000  
G15  22499295.555   118234664.782       -1228.194          47.000  
G24  22295488.679   117163652.088         625.142          47.000  
G12  27074613.057   142278056.595        2783.346          39.000  
J 1  40842796.347   214630337.414        -200.909          44.000  
G10  27236807.229   143130380.496        2749.885          37.000  
G 5  25532884.484   134176226.732       -3889.046          43.000  
G20  23818454.839   125166825.511        2010.677          45.000  
J 2  39001529.948   204954496.124        -544.222          44.000  
G13  24251663.165   127443429.123       -2867.542          45.000  
G18  23856624.500   125367464.907       -1688.718          44.000  
J 7  39359201.311   206834006.983        -696.686          38.000  
J 3                                                                
> 2020 11  5  4 52 18.0070000  0 14                     
G28  26454828.885   139021093.584       -1866.572          39.000  
G23  24224210.394   127299099.691        2094.887          43.000  
G15  22499529.321   118235892.867       -1228.315          47.000  
G24  22295369.671   117163026.934         624.702          47.000  
G12  27074083.360   142275273.142        2783.920          39.000  
J 1  40842834.598   214630537.969        -200.623          44.000  
G10  27236283.794   143127630.392        2750.101          37.000  
G 5  25533624.579   134180115.619       -3889.268          43.000  
G20  23818072.209   125164814.695        2010.576          45.000  
J 2  39001633.555   204955040.093        -544.200          44.000  
G13  24252208.835   127446296.334       -2867.494          45.000  
G18  23856945.876   125369153.640       -1689.146          44.000  
J 7  39359333.842   206834703.679        -696.606          38.000  
J 3                                                                
> 2020 11  5  4 52 19.0070000  0 14                     
G28  26455184.070   139022960.318       -1867.610          39.000  
G23  24223811.677   127297004.724        2094.524          43.000  
G15  22499763.013   118237121.133       -1228.670          47.000  
G24  22295250.789   117162402.258         623.979          47.000  
G12  27073553.633   142272489.447        2783.511          39.000  
J 1  40842872.791   214630738.372        -200.604          44.000  
G10  27235760.425   143124880.189        2749.769          37.000  
G 5  25534364.711   134184004.634       -3889.493          43.000  
G20  23817689.570   125162804.118        2010.021          45.000  
J 2  39001737.125   204955584.045        -544.106          44.000  
G13  24252754.507   127449163.542       -2867.605          45.000  
G18  23857267.325   125370842.892       -1690.005          44.000  
J 7  39359466.374   206835400.281        -697.118          38.000  
J 3                                                                
> 2020 11  5  4 52 20.0070000  0 14                     
G28  26455539.378   139024827.677       -1868.126          39.000  
G23  24223413.035   127294910.126        2094.310          44.000  
G15  22499996.834   118238349.803       -1228.931          47.000  
G24  22295132.002   117161778.247         623.618          48.000  
G12  27073023.955   142269705.705        2783.415          39.000  
J 1  40842910.958   214630938.826        -200.507          45.000  
G10  27235237.196   143122130.043        2750.632          38.000  
G 5  25535104.784   134187894.000       -3889.700          43.000  
G20  23817306.996   125160793.977        2009.819          45.000  
J 2  39001840.666   204956128.211        -544.255          44.000  
G13  24253300.154   127452030.981       -2867.567          45.000  
G18  23857588.999   125372532.854       -1690.373          45.000  
J 7  39359598.870   206836096.977        -696.842          38.000  
J 3                                                                
> 2020 11  5  4 52 21.0070000  0 14                     
G28  26455894.959   139026695.790       -1868.452          39.000  
G23  24223014.460   127292816.044        2093.808          44.000  
G15  22500230.791   118239579.018       -1229.593          47.000  
G24  22295013.311   117161155.070         622.668          48.000  
G12  27072494.267   142266922.068        2783.436          38.000  
J 1  40842949.135   214631139.481        -200.836          44.000  
G10  27234713.973   143119380.188        2749.538          38.000  
G 5  25535845.003   134191783.855       -3890.257          43.000  
G20  23816924.523   125158784.424        2009.092          45.000  
J 2  39001944.269   204956672.719        -544.749          44.000  
G13  24253845.782   127454898.796       -2868.263          45.000  
G18  23857910.764   125374223.696       -1691.401          45.000  
J 7  39359731.547   206836793.941        -697.344          38.000  
J 3                                                                
> 2020 11  5  4 52 22.0070000  0 14                     
G28  26456250.606   139028564.700       -1869.245          38.000  
G23  24222616.123   127290722.454        2093.381          44.000  
G15  22500464.846   118240808.756       -1230.030          47.000  
G24  22294894.956   117160532.702         621.953          47.000  
G12  27071964.503   142264138.535        2783.521          38.000  
J 1  40842987.282   214631340.318        -200.946          44.000  
G10  27234190.802   143116630.524        2749.694          37.000  
G 5  25536585.232   134195674.191       -3890.681          43.000  
G20  23816542.177   125156775.459        2008.604          45.000  
J 2  39002047.962   204957217.564        -545.035          44.000  
G13  24254391.522   127457766.940       -2868.293          45.000  
G18  23858232.748   125375915.380       -1692.166          44.000  
J 7  39359864.155   206837491.113        -697.018          38.000  
J 3                                                                
> 2020 11  5  4 52 23.0070000  0 14                     
G28  26456606.370   139030434.490       -1870.431          39.000  
G23  24222217.884   127288629.516        2092.435          44.000  
G15  22500698.923   118242039.184       -1230.959          47.000  
G24  22294776.705   117159911.329         620.673          47.000  
G12  27071434.877   142261355.255        2783.155          38.000  
J 1  40843025.524   214631541.494        -201.550          44.000  
G10  27233667.683   143113881.258        2748.766          38.000  
G 5  25537325.735   134199565.153       -3891.427          43.000  
G20  23816160.071   125154767.205        2007.809          45.000  
J 2  39002151.675   204957762.895        -545.690          44.000  
G13  24254937.453   127460635.611       -2869.118          45.000  
G18  23858554.765   125377608.069       -1693.479          44.000  
J 7  39359996.934   206838188.744        -697.766          38.000  
J 3                                                                
> 2020 11  5  4 52 24.0070000  0 14                     
G28  26456962.343   139032305.251       -1870.759          39.000  
G23  24221819.669   127286537.280        2091.956          44.000  
G15  22500933.183   118243270.338       -1231.569          47.000  
G24  22294658.584   117159290.998         619.791          47.000  
G12  27070905.281   142258572.297        2783.030          38.000  
J 1  40843063.902   214631743.058        -201.825          44.000  
G10  27233144.507   143111132.393        2748.881          38.000  
G 5  25538066.349   134203456.797       -3891.771          43.000  
G20  23815778.094   125152759.739        2007.128          45.000  
J 2  39002255.602   204958308.755        -545.986          44.000  
G13  24255483.494   127463504.836       -2869.667          45.000  
G18  23858877.138   125379301.823       -1694.317          44.000  
J 7  39360129.851   206838886.806        -698.254          38.000  
J 3                                                                
> 2020 11  5  4 52 25.0070000  0 14                     
G28  26457318.443   139034176.877       -1872.096          39.000  
G23  24221421.595   127284445.612        2091.620          44.000  
G15  22501167.644   118244502.088       -1231.743          47.000  
G24  22294540.688   117158671.583         618.990          47.000  
G12  27070375.734   142255789.498        2782.659          38.000  
J 1  40843102.227   214631944.881        -201.874          44.000  
G10  27232621.448   143108383.865        2748.265          38.000  
G 5  25538807.003   134207349.014       -3892.421          43.000  
G20  23815396.190   125150752.924        2006.563          45.000  
J 2  39002359.616   204958855.042        -546.390          44.000  
G13  24256029.554   127466374.471       -2869.808          45.000  
G18  23859199.666   125380996.502       -1694.939          44.000  
J 7  39360262.649   206839585.194        -698.539          38.000  
J 3                                                                
> 2020 11  5  4 52 26.0070000  0 14                     
G28  26457674.663   139036049.143       -1872.881          38.000  
G23  24221023.622   127282354.342        2091.042          44.000  
G15  22501402.085   118245734.279       -1232.448          47.000  
G24  22294422.897   117158052.878         618.345          47.000  
G12  27069846.079   142253006.659        2783.102          38.000  
J 1  40843140.481   214632146.784        -201.984          44.000  
G10  27232098.426   143105635.413        2748.592          38.000  
G 5  25539547.806   134211241.588       -3892.836          43.000  
G20  23815014.403   125148746.583        2005.974          45.000  
J 2  39002463.622   204959401.536        -546.527          44.000  
G13  24256575.672   127469244.369       -2870.197          45.000  
G18  23859522.415   125382691.937       -1695.820          44.000  
J 7  39360395.537   206840283.703        -698.418          38.000  
J 3                                                                
> 2020 11  5  4 52 27.0070000  0 14                     
G28  26458031.021   139037922.010       -1873.016          38.000  
G23  24220625.735   127280263.428        2090.785          44.000  
G15  22501636.614   118246966.864       -1232.667          47.000  
G24  22294305.286   117157434.879         617.727          47.000  
G12  27069316.570   142250223.845        2782.583          38.000  
J 1  40843178.923   214632348.726        -201.709          44.000  
G10  27231575.457   143102887.044        2749.067          38.000  
G 5  25540288.613   134215134.501       -3892.860          43.000  
G20  23814632.663   125146740.669        2005.848          45.000  
J 2  39002567.692   204959948.244        -546.520          44.000  
G13  24257121.862   127472114.470       -2870.060          45.000  
G18  23859845.150   125384388.069       -1696.212          44.000  
J 7  39360528.466   206840982.346        -698.549          38.000  
J 3                                                                
> 2020 11  5  4 52 28.0070000  0 14                     
G28  26458387.419   139039795.267       -1873.890          39.000  
G23  24220227.871   127278172.611        2090.644          44.000  
G15  22501871.240   118248199.571       -1232.824          47.000  
G24  22294187.798   117156817.295         617.110          47.000  
G12  27068786.914   142247440.669        2783.035          38.000  
J 1  40843217.303   214632550.473        -201.892          44.000  
G10  27231052.350   143100138.570        2748.359          38.000  
G 5  25541029.384   134219027.509       -3893.331          43.000  
G20  23814251.028   125144734.949        2005.416          45.000  
J 2  39002671.725   204960494.884        -546.828          44.000  
G13  24257667.974   127474984.551       -2870.489          45.000  
G18  23860167.978   125386084.680       -1696.940          44.000  
J 7  39360661.426   206841680.814        -698.583          38.000  
J 3                                                                
> 2020 11  5  4 52 29.0070000  0 14                     
G28  26458744.037   139041669.220       -1874.060          39.000  
G23  24219830.059   127276082.282        2090.115          44.000  
G15  22502105.844   118249432.801       -1233.559          47.000  
G24  22294070.354   117156200.485         616.354          47.000  
G12  27068257.328   142244657.609        2782.879          38.000  
J 1  40843255.747   214632752.374        -201.923          44.000  
G10  27230529.461   143097390.277        2748.099          38.000  
G 5  25541770.296   134222920.955       -3893.592          43.000  
G20  23813869.413   125142729.784        2004.798          45.000  
J 2  39002775.876   204961041.843        -547.195          44.000  
G13  24258214.230   127477854.935       -2870.569          45.000  
G18  23860490.964   125387782.119       -1697.888          44.000  
J 7  39360794.391   206842379.519        -698.673          38.000  
J 3                                                                
> 2020 11  5  4 52 30.0070000  0 14                     
G28  26459100.828   139043544.060       -1875.542          39.000  
G23  24219432.365   127273992.499        2089.605          44.000  
G15  22502340.572   118250666.613       -1234.051          47.000  
G24  22293953.228   117155584.562         615.428          47.000  
G12  27067727.661   142241874.687        2782.873          38.000  
J 1  40843294.214   214632954.525        -202.258          44.000  
G10  27230006.620   143094642.246        2747.840          38.000  
G 5  25542511.309   134226814.951       -3894.349          43.000  
G20  23813488.001   125140725.250        2004.192          45.000  
J 2  39002880.020   204961589.191        -547.644          44.000  
G13  24258760.489   127480725.750       -2871.060          45.000  
G18  23860814.156   125389480.472       -1698.873          44.000  
J 7  39360927.471   206843078.549        -699.347          38.000  
J 3                                                                
> 2020 11  5  4 52 31.0070000  0 14                     
G28  26459457.816   139045419.639       -1876.018          39.000  
G23  24219034.894   127271903.254        2088.884          44.000  
G15  22502575.466   118251901.003       -1234.823          47.000  
G24  22293836.247   117154969.505         614.597          48.000  
G12  27067198.042   142239091.892        2782.811          37.000  
J 1  40843332.781   214633156.887        -202.667          44.000  
G10  27229483.794   143091894.470        2747.821          38.000  
G 5  25543252.373   134230709.456       -3894.819          43.000  
G20  23813106.789   125138721.332        2003.517          45.000  
J 2  39002984.183   204962136.900        -547.954          44.000  
G13  24259306.785   127483596.937       -2871.420          45.000  
G18  23861137.514   125391179.719       -1699.941          44.000  
J 7  39361060.497   206843777.804        -699.234          38.000  
J 3                                                                
> 2020 11  5  4 52 32.0070000  0 14                     
G28  26459814.845   139047295.741       -1876.797          39.000  
G23  24218637.347   127269814.242        2088.771          43.000  
G15  22502810.491   118253135.626       -1234.821          47.000  
G24  22293719.397   117154355.000         614.097          47.000  
G12  27066668.469   142236308.969        2782.794          37.000  
J 1  40843371.300   214633359.161        -202.246          44.000  
G10  27228960.884   143089146.675        2747.805          38.000  
G 5  25543993.524   134234604.174       -3894.898          43.000  
G20  23812725.450   125136717.724        2003.382          45.000  
J 2  39003088.332   204962684.686        -547.883          44.000  
G13  24259853.129   127486468.223       -2871.479          45.000  
G18  23861460.975   125392879.537       -1700.337          44.000  
J 7  39361193.537   206844477.084        -699.386          38.000  
J 3                                                                
> 2020 11  5  4 52 33.0070000  0 14                     
G28  26460171.948   139049172.538       -1877.091          39.000  
G23  24218239.964   127267725.674        2088.243          43.000  
G15  22503045.489   118254370.763       -1235.481          47.000  
G24  22293602.733   117153741.292         613.254          47.000  
G12  27066139.020   142233526.056        2782.657          37.000  
J 1  40843409.846   214633561.588        -202.679          44.000  
G10  27228438.054   143086399.054        2747.665          38.000  
G 5  25544734.770   134238499.321       -3895.337          43.000  
G20  23812344.308   125134714.650        2002.643          45.000  
J 2  39003192.660   204963232.765        -548.215          44.000  
G13  24260399.527   127489339.814       -2871.765          45.000  
G18  23861784.664   125394580.166       -1701.139          44.000  
J 7  39361326.615   206845176.559        -699.624          38.000  
J 3                                                                
> 2020 11  5  4 52 34.0070000  0 14                     
G28  26460529.214   139051050.016       -1877.772          39.000  
G23  24217842.611   127265637.496        2088.158          43.000  
G15  22503280.600   118255606.316       -1235.737          47.000  
G24  22293486.174   117153128.304         612.847          47.000  
G12  27065609.438   142230743.163        2782.892          37.000  
J 1  40843448.281   214633764.086        -202.362          44.000  
G10  27227915.265   143083651.573        2747.170          38.000  
G 5  25545476.025   134242394.854       -3895.687          43.000  
G20  23811963.197   125132712.040        2002.348          45.000  
J 2  39003296.848   204963781.062        -548.255          44.000  
G13  24260946.048   127492211.648       -2871.866          45.000  
G18  23862108.346   125396281.539       -1701.568          44.000  
J 7  39361459.714   206845876.167        -699.697          38.000  
J 3                                                                
> 2020 11  5  4 52 35.0070000  0 14                     
G28  26460886.660   139052928.067       -1878.193          38.000  
G23  24217445.336   127263549.641        2087.914          43.000  
G15  22503515.816   118256842.207       -1235.840          47.000  
G24  22293369.546   117152515.936         612.255          47.000  
G12  27065079.794   142227960.178        2782.953          37.000  
J 1  40843486.826   214633966.584        -202.325          44.000  
G10  27227392.473   143080904.110        2747.552          38.000  
G 5  25546217.366   134246290.662       -3895.833          43.000  
G20  23811582.137   125130709.822        2002.135          44.000  
J 2  39003401.244   204964329.511        -548.359          44.000  
G13  24261492.692   127495083.653       -2871.969          44.000  
G18  23862432.226   125397983.587       -1701.978          44.000  
J 7  39361592.857   206846575.823        -699.350          38.000  
J 3                                                                
> 2020 11  5  4 52 36.0070000  0 14                     
G28  26461244.182   139054806.496       -1879.037          38.000  
G23  24217048.014   127261461.923        2087.421          43.000  
G15  22503751.064   118258078.279       -1236.385          47.000  
G24  22293253.160   117151904.032         611.496          47.000  
G12  27064550.171   142225176.892        2783.875          36.000  
J 1  40843525.376   214634168.916        -202.472          43.000  
G10  27226869.638   143078156.523        2747.312          37.000  
G 5  25546958.748   134250186.610       -3896.229          42.000  
G20  23811201.183   125128707.830        2001.554          44.000  
J 2  39003505.592   204964877.941        -548.512          44.000  
G13  24262039.062   127497955.646       -2872.146          44.000  
G18  23862756.234   125399686.133       -1703.028          44.000  
J 7  39361726.021   206847275.394        -699.455          37.000  
J 3                                                                
> 2020 11  5  4 52 37.0070000  0 14                     
G28  26461601.730   139056685.491       -1879.484          38.000  
G23  24216650.736   127259374.498        2087.056          43.000  
G15  22503986.389   118259314.667       -1236.611          47.000  
G24  22293136.705   117151292.747         610.921          47.000  
G12  27064020.516   142222393.576        2783.407          36.000  
J 1  40843563.952   214634371.217        -202.362          43.000  
G10  27226346.705   143075408.929        2747.990          38.000  
G 5  25547700.057   134254082.822       -3896.505          42.000  
G20  23810820.178   125126706.201        2001.276          44.000  
J 2  39003609.946   204965426.487        -548.609          43.000  
G13  24262585.623   127500827.782       -2872.311          44.000  
G18  23863080.265   125401389.335       -1703.721          44.000  
J 7  39361859.200   206847975.004        -699.821          38.000  
J 3                                                                
> 2020 11  5  4 52 38.0070000  0 14                     
G28  26461959.326   139058565.004       -1879.969          38.000  
G23  24216253.580   127257287.312        2087.006          43.000  
G15  22504221.665   118260551.333       -1236.853          47.000  
G24  22293020.452   117150682.042         610.354          47.000  
G12  27063490.753   142219610.052        2783.572          36.000  
J 1  40843602.404   214634573.449        -202.258          44.000  
G10  27225823.860   143072661.342        2747.669          37.000  
G 5  25548441.523   134257979.253       -3896.448          43.000  
G20  23810439.354   125124704.903        2001.086          44.000  
J 2  39003714.342   204965975.127        -548.846          44.000  
G13  24263132.301   127503700.030       -2872.324          44.000  
G18  23863404.448   125403093.131       -1704.232          44.000  
J 7  39361992.262   206848674.588        -699.653          38.000  
J 3                                                                
> 2020 11  5  4 52 39.0070000  0 14                     
G28  26462317.133   139060445.114       -1880.675          38.000  
G23  24215856.455   127255200.488        2086.446          43.000  
G15  22504457.010   118261788.385       -1237.417          47.000  
G24  22292904.301   117150072.012         609.535          47.000  
G12  27062961.061   142216826.501        2783.542          36.000  
J 1  40843640.847   214634775.724        -202.533          44.000  
G10  27225301.014   143069913.837        2747.046          37.000  
G 5  25549183.083   134261876.028       -3897.202          43.000  
G20  23810058.706   125122704.040        2000.433          44.000  
J 2  39003818.767   204966523.951        -549.115          44.000  
G13  24263678.807   127506572.476       -2872.773          44.000  
G18  23863728.700   125404797.619       -1704.955          44.000  
J 7  39362125.318   206849374.269        -699.913          38.000  
J 3                                                                
